[{"iata":"AAA","name":"Anaa Airport","city":"Anaa","country":"French Polynesia","countryCode":"PF","lat":-17.3526,"lng":-145.509995,"timezone":"Pacific/Tahiti","keywords":""},{"iata":"AAC","name":"El Arish International Airport","city":"El Arish","country":"Egypt","countryCode":"EG","lat":31.055324,"lng":33.827964,"timezone":"Africa/Cairo","keywords":""},{"iata":"AAE","name":"Annaba Rabah Bitat Airport","city":"Annaba","country":"Algeria","countryCode":"DZ","lat":36.826781,"lng":7.81334,"timezone":"Africa/Algiers","keywords":"Les Salines Airport, El Mellah Airport, Annabah"},{"iata":"AAK","name":"Aranuka Airport","city":"Buariki","country":"Kiribati","countryCode":"KI","lat":0.185278,"lng":173.636993,"timezone":"UTC","keywords":"Tarawa"},{"iata":"AAL","name":"Aalborg Airport","city":"Aalborg","country":"Denmark","countryCode":"DK","lat":57.094763,"lng":9.84993,"timezone":"Europe/Copenhagen","keywords":""},{"iata":"AAN","name":"Al Ain International Airport","city":"Al Ain","country":"United Arab Emirates","countryCode":"AE","lat":24.2617,"lng":55.6092,"timezone":"Asia/Dubai","keywords":""},{"iata":"AAP","name":"Aji Pangeran Tumenggung Pranoto International Airport","city":"Samarinda","country":"Indonesia","countryCode":"ID","lat":-0.374478,"lng":117.250128,"timezone":"America/Chicago","keywords":"Sungai Siring Airport"},{"iata":"AAQ","name":"Anapa Vityazevo Airport","city":"Krasnyi Kurgan","country":"Russia","countryCode":"RU","lat":45.002102,"lng":37.347301,"timezone":"Europe/Moscow","keywords":"Vityazevo Airport"},{"iata":"AAR","name":"Aarhus Airport","city":"Aarhus","country":"Denmark","countryCode":"DK","lat":56.303331,"lng":10.618286,"timezone":"Europe/Copenhagen","keywords":"Tirstrup"},{"iata":"AAT","name":"Altay Xuedu Airport","city":"Altay","country":"China","countryCode":"CN","lat":47.749886,"lng":88.085808,"timezone":"Asia/Shanghai","keywords":"Altay Air Base"},{"iata":"AAX","name":"Romeu Zema Airport","city":"Araxá","country":"Brazil","countryCode":"BR","lat":-19.5632,"lng":-46.9604,"timezone":"America/Sao_Paulo","keywords":""},{"iata":"AAY","name":"Al Ghaydah International Airport","city":"Al Ghaydah","country":"Yemen","countryCode":"YE","lat":16.193341,"lng":52.174186,"timezone":"Asia/Aden","keywords":""},{"iata":"AAZ","name":"Quezaltenango Airport","city":"Quezaltenango","country":"Guatemala","countryCode":"GT","lat":14.8656,"lng":-91.501999,"timezone":"America/Guatemala","keywords":"Los Altos Airport, Xelajú , Xela"},{"iata":"ABA","name":"Abakan International Airport","city":"Abakan","country":"Russia","countryCode":"RU","lat":53.740002,"lng":91.385002,"timezone":"Asia/Krasnoyarsk","keywords":"УНАА, Абакан"},{"iata":"ABB","name":"Asaba International Airport","city":"Asaba","country":"Nigeria","countryCode":"NG","lat":6.204167,"lng":6.665278,"timezone":"Africa/Lagos","keywords":"Onitsha"},{"iata":"ABD","name":"Abadan Ayatollah Jami International Airport","city":"Abadan","country":"Iran","countryCode":"IR","lat":30.367887,"lng":48.230075,"timezone":"Asia/Tehran","keywords":"Abadan Airport, فرودگاه بین‌المللی آبادان"},{"iata":"ABE","name":"Lehigh Valley International Airport","city":"Allentown/Bethlehem","country":"United States","countryCode":"US","lat":40.651773,"lng":-75.442797,"timezone":"America/New_York","keywords":"Allentown–Bethlehem–Easton International Airport"},{"iata":"ABI","name":"Abilene Regional Airport","city":"Abilene","country":"United States","countryCode":"US","lat":32.4113006592,"lng":-99.68190002440001,"timezone":"America/Chicago","keywords":""},{"iata":"ABJ","name":"Félix-Houphouët-Boigny International Airport","city":"Abidjan","country":"Côte d’Ivoire","countryCode":"CI","lat":5.26139,"lng":-3.92629,"timezone":"Africa/Abidjan","keywords":"Port Bouët"},{"iata":"ABK","name":"Kebri Dahar Airport","city":"Kebri Dahar","country":"Ethiopia","countryCode":"ET","lat":6.732577,"lng":44.241339,"timezone":"Africa/Addis_Ababa","keywords":"Kabri Dar"},{"iata":"ABL","name":"Ambler Airport","city":"Ambler","country":"United States","countryCode":"US","lat":67.105529,"lng":-157.855339,"timezone":"America/Anchorage","keywords":"Z60"},{"iata":"ABM","name":"Northern Peninsula Airport","city":"Bamaga","country":"Australia","countryCode":"AU","lat":-10.946194,"lng":142.455081,"timezone":"Australia/Brisbane","keywords":"YBAM, Bamaga Airport, Bamaga Injinoo Airport, Somerset"},{"iata":"ABQ","name":"Albuquerque International Sunport","city":"Albuquerque","country":"United States","countryCode":"US","lat":35.039976,"lng":-106.608925,"timezone":"America/Denver","keywords":""},{"iata":"ABR","name":"Aberdeen Regional Airport","city":"Aberdeen","country":"United States","countryCode":"US","lat":45.449100494384766,"lng":-98.42179870605469,"timezone":"America/Chicago","keywords":""},{"iata":"ABS","name":"Abu Simbel Airport","city":"Abu Simbel","country":"Egypt","countryCode":"EG","lat":22.375924,"lng":31.611734,"timezone":"Africa/Cairo","keywords":""},{"iata":"ABT","name":"King Saud Bin Abdulaziz (Al Baha) Airport","city":"Al-Baha","country":"Saudi Arabia","countryCode":"SA","lat":20.298506,"lng":41.636153,"timezone":"Asia/Riyadh","keywords":"Al-Aqiq"},{"iata":"ABU","name":"AA Bere Tallo (Haliwen) Airport","city":"Atambua","country":"Indonesia","countryCode":"ID","lat":-9.074841,"lng":124.903285,"timezone":"Asia/Jakarta","keywords":"WRKA"},{"iata":"ABV","name":"Nnamdi Azikiwe International Airport","city":"Abuja","country":"Nigeria","countryCode":"NG","lat":9.00679,"lng":7.26317,"timezone":"Africa/Lagos","keywords":""},{"iata":"ABX","name":"Albury Airport","city":"East Albury","country":"Australia","countryCode":"AU","lat":-36.066758,"lng":146.959148,"timezone":"Australia/Sydney","keywords":""},{"iata":"ABY","name":"Southwest Georgia Regional Airport","city":"Albany","country":"United States","countryCode":"US","lat":31.532946,"lng":-84.196215,"timezone":"America/New_York","keywords":""},{"iata":"ABZ","name":"Aberdeen International Airport","city":"Aberdeen","country":"United Kingdom","countryCode":"GB","lat":57.2019,"lng":-2.19778,"timezone":"Europe/London","keywords":"Dyce"},{"iata":"ACA","name":"General Juan N. Álvarez International Airport","city":"Acapulco","country":"Mexico","countryCode":"MX","lat":16.757126,"lng":-99.753113,"timezone":"America/Mexico_City","keywords":"Acapulco International Airport"},{"iata":"ACC","name":"Kotoka International Airport","city":"Accra","country":"Ghana","countryCode":"GH","lat":5.605189800262451,"lng":-0.16678600013256073,"timezone":"Africa/Accra","keywords":""},{"iata":"ACE","name":"César Manrique-Lanzarote Airport","city":"San Bartolomé","country":"Spain","countryCode":"ES","lat":28.945499,"lng":-13.6052,"timezone":"Atlantic/Canary","keywords":"Arrecife Airport"},{"iata":"ACF","name":"Aral Tarim Airport","city":"Aral","country":"China","countryCode":"CN","lat":40.434748,"lng":81.26206,"timezone":"Australia/Brisbane","keywords":""},{"iata":"ACH","name":"Sankt Gallen Altenrhein Airport","city":"St. Gallen","country":"Switzerland","countryCode":"CH","lat":47.485001,"lng":9.56077,"timezone":"Europe/Zurich","keywords":""},{"iata":"ACI","name":"Alderney Airport","city":"Saint Anne","country":"Guernsey","countryCode":"GG","lat":49.706104,"lng":-2.21472,"timezone":"Europe/Guernsey","keywords":"The Blaye, Channel Islands"},{"iata":"ACK","name":"Nantucket Memorial Airport","city":"Nantucket","country":"United States","countryCode":"US","lat":41.25310135,"lng":-70.06020355,"timezone":"America/New_York","keywords":""},{"iata":"ACT","name":"Waco Regional Airport","city":"Waco","country":"United States","countryCode":"US","lat":31.611299514770508,"lng":-97.23049926757812,"timezone":"America/Chicago","keywords":""},{"iata":"ACV","name":"California Redwood Coast-Humboldt County Airport","city":"Arcata/Eureka","country":"United States","countryCode":"US","lat":40.978101,"lng":-124.109,"timezone":"America/Los_Angeles","keywords":"Arcata Airport, Arcata–Eureka Airport"},{"iata":"ACX","name":"Xingyi Wanfenglin Airport","city":"Xingyi","country":"China","countryCode":"CN","lat":25.083423,"lng":104.960804,"timezone":"Asia/Shanghai","keywords":""},{"iata":"ACY","name":"Atlantic City International Airport","city":"Atlantic City","country":"United States","countryCode":"US","lat":39.456201,"lng":-74.577511,"timezone":"America/New_York","keywords":""},{"iata":"ADA","name":"Adana Şakirpaşa Airport","city":"Seyhan","country":"Türkiye","countryCode":"TR","lat":36.982201,"lng":35.280399,"timezone":"Europe/Istanbul","keywords":"Şakirpaşa, Sakirpasa"},{"iata":"ADB","name":"Adnan Menderes International Airport","city":"Gaziemir","country":"Türkiye","countryCode":"TR","lat":38.2924,"lng":27.157,"timezone":"Europe/Istanbul","keywords":"İzmir"},{"iata":"ADD","name":"Addis Ababa Bole International Airport","city":"Addis Ababa","country":"Ethiopia","countryCode":"ET","lat":8.97789,"lng":38.799301,"timezone":"Africa/Addis_Ababa","keywords":"Haile Selassie I, Bole International Airport"},{"iata":"ADE","name":"Aden International Airport","city":"Aden","country":"Yemen","countryCode":"YE","lat":12.829564,"lng":45.029976,"timezone":"Asia/Aden","keywords":"RAF Khormaksar"},{"iata":"ADF","name":"Adıyaman Airport","city":"Adıyaman","country":"Türkiye","countryCode":"TR","lat":37.7314,"lng":38.468899,"timezone":"Europe/Istanbul","keywords":""},{"iata":"ADJ","name":"Marka International (Amman Civil) Airport","city":"Amman","country":"Jordan","countryCode":"JO","lat":31.9727,"lng":35.9916,"timezone":"Asia/Amman","keywords":"King Abdullah Air Base, Amman Civil Airport, Amman City Airport, Marka International Airport"},{"iata":"ADK","name":"Adak Airport","city":"Adak","country":"United States","countryCode":"US","lat":51.883564,"lng":-176.642783,"timezone":"America/Adak","keywords":""},{"iata":"ADL","name":"Adelaide International Airport","city":"Adelaide","country":"Australia","countryCode":"AU","lat":-34.947512,"lng":138.533393,"timezone":"Australia/Adelaide","keywords":""},{"iata":"ADQ","name":"Kodiak Airport","city":"Kodiak","country":"United States","countryCode":"US","lat":57.75,"lng":-152.4940033,"timezone":"America/Anchorage","keywords":""},{"iata":"ADU","name":"Ardabil Airport","city":"Ardabil","country":"Iran","countryCode":"IR","lat":38.3256988525,"lng":48.4244003296,"timezone":"Asia/Tehran","keywords":""},{"iata":"ADZ","name":"Gustavo Rojas Pinilla International Airport","city":"San Andrés","country":"Colombia","countryCode":"CO","lat":12.5836,"lng":-81.7112,"timezone":"America/Bogota","keywords":""},{"iata":"AEB","name":"Baise (Bose) Bama Airport","city":"Baise","country":"China","countryCode":"CN","lat":23.7206,"lng":106.959999,"timezone":"Asia/Shanghai","keywords":"Tian Yang Air Base, Bose airport, 百色右江机场"},{"iata":"AEH","name":"Abeche Airport","city":"Abeche","country":"Chad","countryCode":"TD","lat":13.847,"lng":20.844299,"timezone":"Africa/Ndjamena","keywords":""},{"iata":"AEP","name":"Aeroparque Jorge Newbery","city":"Buenos Aires","country":"Argentina","countryCode":"AR","lat":-34.559419,"lng":-58.415536,"timezone":"America/Buenos_Aires","keywords":""},{"iata":"AER","name":"Sochi International Airport","city":"Sochi","country":"Russia","countryCode":"RU","lat":43.449902,"lng":39.9566,"timezone":"Europe/Moscow","keywords":"Adler Airport, Black Sea, Международный Аэропорт Сочи"},{"iata":"AES","name":"Ålesund Airport","city":"Ålesund","country":"Norway","countryCode":"NO","lat":62.560443,"lng":6.110845,"timezone":"Europe/Oslo","keywords":"Vigra, Ålesund Vigra Airport"},{"iata":"AET","name":"Allakaket Airport","city":"Allakaket","country":"United States","countryCode":"US","lat":66.551804,"lng":-152.621994,"timezone":"America/Anchorage","keywords":""},{"iata":"AEU","name":"Abu Musa Island Airport","city":"Abu Musa","country":"Iran","countryCode":"IR","lat":25.8757,"lng":55.033001,"timezone":"Asia/Tehran","keywords":""},{"iata":"AEX","name":"Alexandria International Airport","city":"Alexandria","country":"United States","countryCode":"US","lat":31.325828,"lng":-92.546702,"timezone":"America/Chicago","keywords":"England Air Park, England Air Force Base"},{"iata":"AEY","name":"Akureyri International Airport","city":"Akureyri","country":"Iceland","countryCode":"IS","lat":65.656573,"lng":-18.072018,"timezone":"Atlantic/Reykjavik","keywords":""},{"iata":"AFA","name":"Suboficial Ay Santiago Germano Airport","city":"San Rafael","country":"Argentina","countryCode":"AR","lat":-34.588299,"lng":-68.4039,"timezone":"America/Mendoza","keywords":""},{"iata":"AFL","name":"Piloto Osvaldo Marques Dias Airport","city":"Alta Floresta","country":"Brazil","countryCode":"BR","lat":-9.866389,"lng":-56.106298,"timezone":"America/Campo_Grande","keywords":""},{"iata":"AFZ","name":"Sabzevar National Airport","city":"Sabzevar","country":"Iran","countryCode":"IR","lat":36.16809844970703,"lng":57.59519958496094,"timezone":"Asia/Tehran","keywords":""},{"iata":"AGA","name":"Al Massira Airport","city":"Agadir","country":"Morocco","countryCode":"MA","lat":30.322478,"lng":-9.412003,"timezone":"Africa/Casablanca","keywords":""},{"iata":"AGE","name":"Wangerooge Airport","city":"Wangerooge","country":"Germany","countryCode":"DE","lat":53.782544,"lng":7.919584,"timezone":"Europe/Berlin","keywords":""},{"iata":"AGH","name":"Ängelholm-Helsingborg Airport","city":"Ängelholm","country":"Sweden","countryCode":"SE","lat":56.29610061645508,"lng":12.847100257873535,"timezone":"Europe/Stockholm","keywords":"ESDB, Ängelholm Air Base"},{"iata":"AGI","name":"Wageningen Airstrip","city":"Wageningen","country":"Suriname","countryCode":"SR","lat":5.841252,"lng":-56.673247,"timezone":"America/Paramaribo","keywords":""},{"iata":"AGJ","name":"Aguni Airport","city":"Aguni","country":"Japan","countryCode":"JP","lat":26.592755,"lng":127.240335,"timezone":"Asia/Tokyo","keywords":""},{"iata":"AGP","name":"Málaga-Costa del Sol Airport","city":"Málaga","country":"Spain","countryCode":"ES","lat":36.6749,"lng":-4.49911,"timezone":"Europe/Madrid","keywords":"Costa del Sol, Malaga"},{"iata":"AGR","name":"Agra Airport / Agra Air Force Station","city":"Agra","country":"India","countryCode":"IN","lat":27.157975,"lng":77.961025,"timezone":"Asia/Calcutta","keywords":"Kheria Airport, Pandit Deen Dayal Upadhyay Airport, RAF Agra"},{"iata":"AGS","name":"Augusta Regional At Bush Field","city":"Augusta","country":"United States","countryCode":"US","lat":33.3699,"lng":-81.9645,"timezone":"America/New_York","keywords":""},{"iata":"AGT","name":"Guaraní International Airport","city":"Ciudad del Este","country":"Paraguay","countryCode":"PY","lat":-25.457186,"lng":-54.839544,"timezone":"America/Asuncion","keywords":"Aeropuerto Internacional Guaraní"},{"iata":"AGU","name":"Aguascalientes International Airport","city":"Aguascalientes","country":"Mexico","countryCode":"MX","lat":21.699589,"lng":-102.318372,"timezone":"America/Mexico_City","keywords":"Jesús Terán Peredo International Airport, Licenciado Jesús Terán Peredo, Aeropuerto Internacional Jesús Terán Peredo"},{"iata":"AGX","name":"Agatti Airport","city":"Agatti","country":"India","countryCode":"IN","lat":10.8237,"lng":72.176003,"timezone":"Asia/Calcutta","keywords":""},{"iata":"AHA","name":"Maa Mahamaya Airport","city":"Ambikapur","country":"India","countryCode":"IN","lat":22.98753,"lng":83.19612,"timezone":"Asia/Kolkata","keywords":"Ambikapur, Darima"},{"iata":"AHB","name":"Abha International Airport","city":"Abha","country":"Saudi Arabia","countryCode":"SA","lat":18.2404,"lng":42.656601,"timezone":"Asia/Riyadh","keywords":"Abha International Airport"},{"iata":"AHE","name":"Ahe Airport","city":"Ahe Atoll","country":"French Polynesia","countryCode":"PF","lat":-14.428099632263184,"lng":-146.2570037841797,"timezone":"Pacific/Tahiti","keywords":"Tenukupara"},{"iata":"AHO","name":"Alghero-Fertilia Airport","city":"Alghero","country":"Italy","countryCode":"IT","lat":40.632099,"lng":8.29077,"timezone":"Europe/Rome","keywords":"Alghero Airport, Sardinia, Alghero - Riviera del Corallo Airport"},{"iata":"AIA","name":"Alliance Municipal Airport","city":"Alliance","country":"United States","countryCode":"US","lat":42.052543,"lng":-102.803965,"timezone":"America/Denver","keywords":""},{"iata":"AIN","name":"Wainwright Airport","city":"Wainwright","country":"United States","countryCode":"US","lat":70.638,"lng":-159.994995,"timezone":"America/Anchorage","keywords":"5WW"},{"iata":"AIP","name":"Adampur Airport","city":"Adampur","country":"India","countryCode":"IN","lat":31.4338,"lng":75.758797,"timezone":"Asia/Kolkata","keywords":"Adampur Air Force Station"},{"iata":"AIT","name":"Aitutaki Airport","city":"Aitutaki","country":"Cook Islands","countryCode":"CK","lat":-18.8309,"lng":-159.764008,"timezone":"Pacific/Rarotonga","keywords":""},{"iata":"AIU","name":"Enua Airport","city":"Atiu Island","country":"Cook Islands","countryCode":"CK","lat":-19.96780014038086,"lng":-158.11900329589844,"timezone":"Pacific/Rarotonga","keywords":""},{"iata":"AJA","name":"Ajaccio Napoléon Bonaparte airport","city":"Ajaccio","country":"France","countryCode":"FR","lat":41.923599,"lng":8.80292,"timezone":"Europe/Paris","keywords":""},{"iata":"AJF","name":"Al-Jawf International Airport","city":"Al-Jawf","country":"Saudi Arabia","countryCode":"SA","lat":29.783301,"lng":40.100905,"timezone":"Asia/Riyadh","keywords":"Al Jouf Airport, Al Jawf, Al Jawf Airport, Al Jouf Regional Airport, Al Jawf Regional Airport"},{"iata":"AJI","name":"Ağrı Airport","city":"Ağrı","country":"Türkiye","countryCode":"TR","lat":39.655642,"lng":43.025742,"timezone":"Europe/Istanbul","keywords":""},{"iata":"AJL","name":"Lengpui Airport","city":"Aizawl","country":"India","countryCode":"IN","lat":23.840599,"lng":92.619698,"timezone":"Asia/Calcutta","keywords":""},{"iata":"AJN","name":"Ouani Airport","city":"Ouani","country":"Comoros","countryCode":"KM","lat":-12.131047,"lng":44.430044,"timezone":"Indian/Comoro","keywords":""},{"iata":"AJR","name":"Arvidsjaur Airport","city":"Arvidsjaur","country":"Sweden","countryCode":"SE","lat":65.59030151367188,"lng":19.28190040588379,"timezone":"Europe/Stockholm","keywords":""},{"iata":"AJU","name":"Aracaju - Santa Maria Airport","city":"Aracaju","country":"Brazil","countryCode":"BR","lat":-10.98394,"lng":-37.072873,"timezone":"America/Fortaleza","keywords":""},{"iata":"AKA","name":"Ankang Fuqiang Airport","city":"Ankang","country":"China","countryCode":"CN","lat":32.75696,"lng":108.87338,"timezone":"Asia/Shanghai","keywords":""},{"iata":"AKB","name":"Atka Airport","city":"Atka","country":"United States","countryCode":"US","lat":52.220299,"lng":-174.205994,"timezone":"America/Adak","keywords":"40A"},{"iata":"AKF","name":"Kufra Airport","city":"Kufra","country":"Libya","countryCode":"LY","lat":24.178699493408203,"lng":23.31399917602539,"timezone":"Africa/Tripoli","keywords":""},{"iata":"AKI","name":"Akiak Airport","city":"Akiak","country":"United States","countryCode":"US","lat":60.902646,"lng":-161.23106,"timezone":"America/Anchorage","keywords":""},{"iata":"AKJ","name":"Asahikawa Airport","city":"Higashikagura","country":"Japan","countryCode":"JP","lat":43.670799,"lng":142.447006,"timezone":"Asia/Tokyo","keywords":""},{"iata":"AKK","name":"Akhiok Airport","city":"Akhiok","country":"United States","countryCode":"US","lat":56.938702,"lng":-154.182999,"timezone":"America/Anchorage","keywords":""},{"iata":"AKL","name":"Auckland International Airport","city":"Auckland","country":"New Zealand","countryCode":"NZ","lat":-37.01199,"lng":174.786331,"timezone":"Pacific/Auckland","keywords":""},{"iata":"AKN","name":"King Salmon Airport","city":"King Salmon","country":"United States","countryCode":"US","lat":58.677845,"lng":-156.651965,"timezone":"America/Anchorage","keywords":"Naknek Air Force Base"},{"iata":"AKP","name":"Anaktuvuk Pass Airport","city":"Anaktuvuk Pass","country":"United States","countryCode":"US","lat":68.133598,"lng":-151.742996,"timezone":"America/Anchorage","keywords":""},{"iata":"AKR","name":"Akure Airport","city":"Akure","country":"Nigeria","countryCode":"NG","lat":7.246739864349365,"lng":5.3010101318359375,"timezone":"Africa/Lagos","keywords":""},{"iata":"AKS","name":"Gwaunaru'u Airport","city":"Auki","country":"Solomon Islands","countryCode":"SB","lat":-8.70257,"lng":160.682007,"timezone":"Pacific/Guadalcanal","keywords":""},{"iata":"AKU","name":"Aksu Hongqipo Airport","city":"Aksu","country":"China","countryCode":"CN","lat":41.262501,"lng":80.291702,"timezone":"Asia/Shanghai","keywords":"Ak-su, Akshu, Aqsu, Bharuka, Po-lu-chia, Aksu Wensu Air Base, Onsu"},{"iata":"AKV","name":"Akulivik Airport","city":"Akulivik","country":"Canada","countryCode":"CA","lat":60.8186,"lng":-78.148598,"timezone":"America/Toronto","keywords":"YKO"},{"iata":"AKX","name":"Aktobe International Airport","city":"Aktobe","country":"Kazakhstan","countryCode":"KZ","lat":50.248116,"lng":57.204144,"timezone":"Asia/Oral","keywords":"Aktyubinsk Airport, Aktubinsk Airport, Аэропорт Актюбинск"},{"iata":"AKY","name":"Sittwe Airport","city":"Sittwe","country":"Myanmar (Burma)","countryCode":"MM","lat":20.133165,"lng":92.870693,"timezone":"Asia/Rangoon","keywords":""},{"iata":"ALA","name":"Almaty International Airport","city":"Almaty","country":"Kazakhstan","countryCode":"KZ","lat":43.354267,"lng":77.042828,"timezone":"Asia/Qyzylorda","keywords":"Alma Ata"},{"iata":"ALB","name":"Albany International Airport","city":"Albany","country":"United States","countryCode":"US","lat":42.748299,"lng":-73.801697,"timezone":"America/New_York","keywords":""},{"iata":"ALC","name":"Alicante-Elche Miguel Hernández Airport","city":"Alicante","country":"Spain","countryCode":"ES","lat":38.2822,"lng":-0.558156,"timezone":"Europe/Madrid","keywords":""},{"iata":"ALF","name":"Alta Airport","city":"Alta","country":"Norway","countryCode":"NO","lat":69.976097,"lng":23.3717,"timezone":"Europe/Oslo","keywords":""},{"iata":"ALG","name":"Houari Boumediene Airport","city":"Algiers","country":"Algeria","countryCode":"DZ","lat":36.693886,"lng":3.214531,"timezone":"Africa/Algiers","keywords":"Algiers, Maison Blanche"},{"iata":"ALH","name":"Albany Airport","city":"Albany","country":"Australia","countryCode":"AU","lat":-34.943333,"lng":117.808889,"timezone":"Australia/Perth","keywords":"ABA, YPAL, Harry Riggs Albany Regional"},{"iata":"ALO","name":"Waterloo Regional Airport","city":"Waterloo","country":"United States","countryCode":"US","lat":42.557098388671875,"lng":-92.40029907226562,"timezone":"America/Chicago","keywords":""},{"iata":"ALP","name":"Aleppo International Airport","city":"Aleppo","country":"Syria","countryCode":"SY","lat":36.181262,"lng":37.226869,"timezone":"Asia/Damascus","keywords":"مطار حلب الدولي"},{"iata":"ALS","name":"San Luis Valley Regional Airport/Bergman Field","city":"Alamosa","country":"United States","countryCode":"US","lat":37.434898,"lng":-105.866997,"timezone":"America/Denver","keywords":""},{"iata":"ALW","name":"Walla Walla Regional Airport","city":"Walla Walla","country":"United States","countryCode":"US","lat":46.09489822,"lng":-118.288002,"timezone":"America/Los_Angeles","keywords":""},{"iata":"AMA","name":"Rick Husband Amarillo International Airport","city":"Amarillo","country":"United States","countryCode":"US","lat":35.217857,"lng":-101.706444,"timezone":"America/Chicago","keywords":""},{"iata":"AMD","name":"Sardar Vallabh Patel International Airport","city":"Ahmedabad","country":"India","countryCode":"IN","lat":23.0772,"lng":72.634697,"timezone":"Asia/Calcutta","keywords":"Gandhinagar Air Force Station"},{"iata":"AMH","name":"Arba Minch Airport","city":"Arba Minch","country":"Ethiopia","countryCode":"ET","lat":6.03939,"lng":37.5905,"timezone":"Africa/Addis_Ababa","keywords":"Gantar, Minghi"},{"iata":"AMM","name":"Queen Alia International Airport","city":"Amman","country":"Jordan","countryCode":"JO","lat":31.7226009369,"lng":35.9931983948,"timezone":"Asia/Amman","keywords":""},{"iata":"AMQ","name":"Pattimura International Airport","city":"Ambon","country":"Indonesia","countryCode":"ID","lat":-3.71026,"lng":128.089005,"timezone":"Asia/Jayapura","keywords":""},{"iata":"AMS","name":"Amsterdam Airport Schiphol","city":"Amsterdam","country":"Netherlands","countryCode":"NL","lat":52.308601,"lng":4.76389,"timezone":"Europe/Amsterdam","keywords":""},{"iata":"AMV","name":"Amderma Airport","city":"Amderma","country":"Russia","countryCode":"RU","lat":69.76329803466797,"lng":61.556400299072266,"timezone":"Europe/Moscow","keywords":""},{"iata":"ANC","name":"Ted Stevens Anchorage International Airport","city":"Anchorage","country":"United States","countryCode":"US","lat":61.179004,"lng":-149.992561,"timezone":"America/Anchorage","keywords":"Anchorage"},{"iata":"ANF","name":"Andrés Sabella Gálvez International Airport","city":"Antofagasta","country":"Chile","countryCode":"CL","lat":-23.445274,"lng":-70.445232,"timezone":"America/Santiago","keywords":"Cerro Moreno Airport"},{"iata":"ANI","name":"Aniak Airport","city":"Aniak","country":"United States","countryCode":"US","lat":61.581600189208984,"lng":-159.54299926757812,"timezone":"America/Anchorage","keywords":""},{"iata":"ANR","name":"Antwerp International Airport (Deurne)","city":"Antwerp","country":"Belgium","countryCode":"BE","lat":51.190667,"lng":4.463153,"timezone":"Europe/Brussels","keywords":""},{"iata":"ANS","name":"Andahuaylas Airport","city":"Andahuaylas","country":"Peru","countryCode":"PE","lat":-13.706399917602539,"lng":-73.35040283203125,"timezone":"America/Lima","keywords":""},{"iata":"ANU","name":"V. C. Bird International Airport","city":"Osbourn","country":"Antigua & Barbuda","countryCode":"AG","lat":17.1367,"lng":-61.792702,"timezone":"America/Antigua","keywords":"St. John's"},{"iata":"ANV","name":"Anvik Airport","city":"Anvik","country":"United States","countryCode":"US","lat":62.646702,"lng":-160.190994,"timezone":"America/Anchorage","keywords":""},{"iata":"ANX","name":"Andøya Airport, Andenes","city":"Andenes","country":"Norway","countryCode":"NO","lat":69.295193,"lng":16.139379,"timezone":"Europe/Oslo","keywords":""},{"iata":"AOE","name":"Hasan Polatkan Airport","city":"Eskişehir","country":"Türkiye","countryCode":"TR","lat":39.811644,"lng":30.519268,"timezone":"Europe/Istanbul","keywords":"Anadolu Airport"},{"iata":"AOG","name":"Anshan Teng'ao Airport / Anshan Air Base","city":"Anshan","country":"China","countryCode":"CN","lat":41.105301,"lng":122.853996,"timezone":"Asia/Shanghai","keywords":""},{"iata":"AOI","name":"Marche Airport","city":"Falconara Marittima","country":"Italy","countryCode":"IT","lat":43.616299,"lng":13.3623,"timezone":"Europe/Rome","keywords":"Ancona, Ancona Falconara Airport, Falconara, Raffaello Sanzio Airport"},{"iata":"AOJ","name":"Aomori Airport","city":"Aomori","country":"Japan","countryCode":"JP","lat":40.733777,"lng":140.689477,"timezone":"Asia/Tokyo","keywords":""},{"iata":"AOK","name":"Karpathos Airport","city":"Karpathos Island","country":"Greece","countryCode":"GR","lat":35.421398,"lng":27.146,"timezone":"Europe/Athens","keywords":""},{"iata":"AOO","name":"Altoona Blair County Airport","city":"Altoona","country":"United States","countryCode":"US","lat":40.296398,"lng":-78.32,"timezone":"America/New_York","keywords":""},{"iata":"AOR","name":"Sultan Abdul Halim Airport","city":"Alor Satar","country":"Malaysia","countryCode":"MY","lat":6.189670085906982,"lng":100.39800262451172,"timezone":"Asia/Kuala_Lumpur","keywords":""},{"iata":"APK","name":"Apataki Airport","city":"Apataki","country":"French Polynesia","countryCode":"PF","lat":-15.5736,"lng":-146.414993,"timezone":"Pacific/Tahiti","keywords":""},{"iata":"APL","name":"Nampula Airport","city":"Nampula","country":"Mozambique","countryCode":"MZ","lat":-15.1056,"lng":39.281799,"timezone":"Africa/Maputo","keywords":""},{"iata":"APN","name":"Alpena County Regional Airport","city":"Alpena","country":"United States","countryCode":"US","lat":45.0780983,"lng":-83.56030273,"timezone":"America/New_York","keywords":""},{"iata":"APO","name":"Antonio Roldán Betancur Airport","city":"Carepa","country":"Colombia","countryCode":"CO","lat":7.81196,"lng":-76.7164,"timezone":"America/Bogota","keywords":""},{"iata":"APW","name":"Faleolo International Airport","city":"Apia","country":"Samoa","countryCode":"WS","lat":-13.83,"lng":-172.007996,"timezone":"Pacific/Apia","keywords":""},{"iata":"AQA","name":"Araraquara Airport","city":"Araraquara","country":"Brazil","countryCode":"BR","lat":-21.812,"lng":-48.132999,"timezone":"America/Sao_Paulo","keywords":""},{"iata":"AQG","name":"Anqing Tianzhushan Airport / Anqing North Air Base","city":"Anqing","country":"China","countryCode":"CN","lat":30.582199,"lng":117.050003,"timezone":"Asia/Shanghai","keywords":""},{"iata":"AQI","name":"Qaisumah–Hafar Al-Batin International Airport","city":"Qaisumah","country":"Saudi Arabia","countryCode":"SA","lat":28.335726,"lng":46.127108,"timezone":"Asia/Riyadh","keywords":"HBT, Qaisumah Domestic Airport"},{"iata":"AQJ","name":"King Hussein International Airport","city":"Aqaba","country":"Jordan","countryCode":"JO","lat":29.611601,"lng":35.018101,"timezone":"Asia/Amman","keywords":""},{"iata":"AQP","name":"Rodríguez Ballón International Airport","city":"Arequipa","country":"Peru","countryCode":"PE","lat":-16.340786,"lng":-71.569485,"timezone":"America/Lima","keywords":""},{"iata":"ARC","name":"Arctic Village Airport","city":"Arctic Village","country":"United States","countryCode":"US","lat":68.1147,"lng":-145.578995,"timezone":"America/Anchorage","keywords":""},{"iata":"ARD","name":"Alor Island - Mali Airport","city":"Kabola","country":"Indonesia","countryCode":"ID","lat":-8.13234,"lng":124.597,"timezone":"Asia/Makassar","keywords":""},{"iata":"ARH","name":"Talagi Airport","city":"Archangelsk","country":"Russia","countryCode":"RU","lat":64.60030364990234,"lng":40.71670150756836,"timezone":"Europe/Moscow","keywords":"Арха́нгельск, Archangel"},{"iata":"ARI","name":"Chacalluta International Airport","city":"Arica","country":"Chile","countryCode":"CL","lat":-18.348499,"lng":-70.338699,"timezone":"America/Santiago","keywords":""},{"iata":"ARK","name":"Arusha Airport","city":"Arusha","country":"Tanzania","countryCode":"TZ","lat":-3.3677899837493896,"lng":36.63330078125,"timezone":"Africa/Dar_es_Salaam","keywords":""},{"iata":"ARM","name":"Armidale Airport","city":"Armidale","country":"Australia","countryCode":"AU","lat":-30.528099060099997,"lng":151.617004395,"timezone":"Australia/Sydney","keywords":""},{"iata":"ARN","name":"Stockholm-Arlanda Airport","city":"Stockholm","country":"Sweden","countryCode":"SE","lat":59.64849,"lng":17.928829,"timezone":"Europe/Stockholm","keywords":""},{"iata":"ART","name":"Watertown International Airport","city":"Watertown","country":"United States","countryCode":"US","lat":43.991901,"lng":-76.021698,"timezone":"America/New_York","keywords":""},{"iata":"ARU","name":"Araçatuba Airport","city":"Araçatuba","country":"Brazil","countryCode":"BR","lat":-21.141479,"lng":-50.424575,"timezone":"America/Sao_Paulo","keywords":"Dario Guarita State Airport"},{"iata":"ARW","name":"Arad International Airport","city":"Arad","country":"Romania","countryCode":"RO","lat":46.176136,"lng":21.264322,"timezone":"Europe/Bucharest","keywords":""},{"iata":"ASB","name":"Ashgabat International Airport","city":"Ashgabat","country":"Turkmenistan","countryCode":"TM","lat":37.986801,"lng":58.361,"timezone":"Asia/Ashgabat","keywords":"Saparmurat Turkmenbashy International Airport"},{"iata":"ASD","name":"Andros Town Airport","city":"Andros Town","country":"Bahamas","countryCode":"BS","lat":24.697901,"lng":-77.795601,"timezone":"America/Nassau","keywords":""},{"iata":"ASE","name":"Aspen-Pitkin County Airport (Sardy Field)","city":"Aspen","country":"United States","countryCode":"US","lat":39.223202,"lng":-106.869003,"timezone":"America/Denver","keywords":""},{"iata":"ASF","name":"Astrakhan Narimanovo Boris M. Kustodiev International Airport","city":"Astrakhan","country":"Russia","countryCode":"RU","lat":46.282843,"lng":48.010511,"timezone":"Europe/Samara","keywords":"Astrahan Airport, Narimanovo Airport, Аэропорт Астрахань, Аэропорт Нариманово"},{"iata":"ASI","name":"RAF Ascension Island","city":"Cat Hill","country":"St. Helena","countryCode":"SH","lat":-7.970179,"lng":-14.392744,"timezone":"Atlantic/St_Helena","keywords":"Wideawake Airfield, Ascension Island Auxiliary Field"},{"iata":"ASJ","name":"Amami Airport","city":"Amami","country":"Japan","countryCode":"JP","lat":28.430599212646484,"lng":129.71299743652344,"timezone":"Asia/Tokyo","keywords":""},{"iata":"ASM","name":"Asmara International Airport","city":"Asmara","country":"Eritrea","countryCode":"ER","lat":15.2919,"lng":38.910702,"timezone":"Africa/Asmera","keywords":"Yohannes International."},{"iata":"ASO","name":"Asosa Airport","city":"Asosa","country":"Ethiopia","countryCode":"ET","lat":10.018500328063965,"lng":34.586299896240234,"timezone":"Africa/Addis_Ababa","keywords":""},{"iata":"ASP","name":"Alice Springs Airport","city":"Alice Springs","country":"Australia","countryCode":"AU","lat":-23.806588,"lng":133.903427,"timezone":"Australia/Darwin","keywords":""},{"iata":"ASR","name":"Kayseri Erkilet International Airport","city":"Kayseri","country":"Türkiye","countryCode":"TR","lat":38.770401,"lng":35.495399,"timezone":"Europe/Istanbul","keywords":"Erkilet"},{"iata":"ASU","name":"Silvio Pettirossi International Airport","city":"Asunción","country":"Paraguay","countryCode":"PY","lat":-25.240156,"lng":-57.519227,"timezone":"America/Asuncion","keywords":"Luque, Stroessner, Aeropuerto Internacional Silvio Pettirossi"},{"iata":"ASV","name":"Amboseli Airport","city":"Ol Tukai","country":"Kenya","countryCode":"KE","lat":-2.644786,"lng":37.252922,"timezone":"Africa/Nairobi","keywords":"Maasai Amboseli Game Reserve"},{"iata":"ASW","name":"Aswan International Airport","city":"Aswan","country":"Egypt","countryCode":"EG","lat":23.961075,"lng":32.820382,"timezone":"Africa/Cairo","keywords":"aswan airport"},{"iata":"ATC","name":"Arthur's Town Airport","city":"Arthur's Town","country":"Bahamas","countryCode":"BS","lat":24.6294,"lng":-75.673797,"timezone":"America/Nassau","keywords":""},{"iata":"ATH","name":"Athens Eleftherios Venizelos International Airport","city":"Athens","country":"Greece","countryCode":"GR","lat":37.936401,"lng":23.9445,"timezone":"Europe/Athens","keywords":""},{"iata":"ATK","name":"Atqasuk Edward Burnell Sr Memorial Airport","city":"Atqasuk","country":"United States","countryCode":"US","lat":70.46704,"lng":-157.436013,"timezone":"America/Anchorage","keywords":"Z46"},{"iata":"ATL","name":"Hartsfield Jackson Atlanta International Airport","city":"Atlanta","country":"United States","countryCode":"US","lat":33.6367,"lng":-84.428101,"timezone":"America/New_York","keywords":""},{"iata":"ATM","name":"Altamira Interstate Airport","city":"Altamira","country":"Brazil","countryCode":"BR","lat":-3.253144,"lng":-52.253938,"timezone":"America/Belem","keywords":""},{"iata":"ATQ","name":"Sri Guru Ram Das Ji International Airport","city":"Amritsar","country":"India","countryCode":"IN","lat":31.7096,"lng":74.797302,"timezone":"Asia/Calcutta","keywords":"Amritsar Air Force Station"},{"iata":"ATT","name":"Atmautluak Airport","city":"Atmautluak","country":"United States","countryCode":"US","lat":60.866699,"lng":-162.272996,"timezone":"America/Anchorage","keywords":"08AK"},{"iata":"ATW","name":"Appleton International Airport","city":"Appleton","country":"United States","countryCode":"US","lat":44.258515,"lng":-88.519,"timezone":"America/Chicago","keywords":"Outagamie County Regional Airport"},{"iata":"ATY","name":"Watertown Regional Airport","city":"Watertown","country":"United States","countryCode":"US","lat":44.91400146,"lng":-97.15470123,"timezone":"America/Chicago","keywords":""},{"iata":"ATZ","name":"Asyut International Airport","city":"Asyut","country":"Egypt","countryCode":"EG","lat":27.045962,"lng":31.01276,"timezone":"Africa/Cairo","keywords":"Asyut"},{"iata":"AUA","name":"Queen Beatrix International Airport","city":"Oranjestad","country":"Aruba","countryCode":"AW","lat":12.501056,"lng":-70.014281,"timezone":"America/Aruba","keywords":"Playa, Dakota Field"},{"iata":"AUC","name":"Santiago Perez Airport","city":"Arauca","country":"Colombia","countryCode":"CO","lat":7.06888,"lng":-70.7369,"timezone":"America/Bogota","keywords":""},{"iata":"AUG","name":"Augusta State Airport","city":"Augusta","country":"United States","countryCode":"US","lat":44.320598602299995,"lng":-69.7973022461,"timezone":"America/New_York","keywords":""},{"iata":"AUH","name":"Zayed International Airport","city":"Abu Dhabi","country":"United Arab Emirates","countryCode":"AE","lat":24.440966,"lng":54.649237,"timezone":"Asia/Dubai","keywords":"Abu Dhabi International Airport"},{"iata":"AUK","name":"Alakanuk Airport","city":"Alakanuk","country":"United States","countryCode":"US","lat":62.682653,"lng":-164.722481,"timezone":"America/Anchorage","keywords":""},{"iata":"AUL","name":"Aur Island Airport","city":"Aur Atoll","country":"Marshall Islands","countryCode":"MH","lat":8.14528,"lng":171.173004,"timezone":"UTC","keywords":""},{"iata":"AUQ","name":"Hiva Oa-Atuona Airport","city":"Hiva Oa Island","country":"French Polynesia","countryCode":"PF","lat":-9.76879024506,"lng":-139.011001587,"timezone":"Pacific/Marquesas","keywords":"HIX"},{"iata":"AUR","name":"Aurillac airport","city":"Aurillac","country":"France","countryCode":"FR","lat":44.891399,"lng":2.42194,"timezone":"Europe/Paris","keywords":""},{"iata":"AUS","name":"Austin Bergstrom International Airport","city":"Austin","country":"United States","countryCode":"US","lat":30.197535,"lng":-97.662015,"timezone":"America/Chicago","keywords":"BSM, KBSM, Bergstrom AFB"},{"iata":"AUU","name":"Aurukun Airport","city":"Aurukun","country":"Australia","countryCode":"AU","lat":-13.354019,"lng":141.720028,"timezone":"Australia/Brisbane","keywords":""},{"iata":"AUX","name":"Araguaína Airport","city":"Araguaína","country":"Brazil","countryCode":"BR","lat":-7.22787,"lng":-48.240501,"timezone":"America/Fortaleza","keywords":""},{"iata":"AVA","name":"Anshun Huangguoshu Airport","city":"Anshun","country":"China","countryCode":"CN","lat":26.260556,"lng":105.873333,"timezone":"Asia/Shanghai","keywords":""},{"iata":"AVK","name":"Arvaikheer Airport","city":"Arvaikheer","country":"Mongolia","countryCode":"MN","lat":46.250301361083984,"lng":102.802001953125,"timezone":"Asia/Ulaanbaatar","keywords":""},{"iata":"AVL","name":"Asheville Regional Airport","city":"Asheville","country":"United States","countryCode":"US","lat":35.435488,"lng":-82.541853,"timezone":"America/New_York","keywords":""},{"iata":"AVN","name":"Avignon Caumont airport","city":"Avignon","country":"France","countryCode":"FR","lat":43.907299,"lng":4.90183,"timezone":"Europe/Paris","keywords":""},{"iata":"AVP","name":"Wilkes-Barre/Scranton International Airport","city":"Wilkes-Barre/Scranton","country":"United States","countryCode":"US","lat":41.337064,"lng":-75.724232,"timezone":"America/New_York","keywords":""},{"iata":"AVV","name":"Melbourne Avalon International Airport","city":"Geelong/Melbourne","country":"Australia","countryCode":"AU","lat":-38.040269,"lng":144.467196,"timezone":"Australia/Hobart","keywords":"Lara, Geelong"},{"iata":"AWA","name":"Hawassa International Airport","city":"Hawassa","country":"Ethiopia","countryCode":"ET","lat":7.100611,"lng":38.396455,"timezone":"Africa/Addis_Ababa","keywords":"Awasa"},{"iata":"AWK","name":"Wake Island Airfield","city":"Wake Island","country":"U.S. Outlying Islands","countryCode":"UM","lat":19.282437,"lng":166.636637,"timezone":"Pacific/Johnston","keywords":""},{"iata":"AWZ","name":"Qasem Soleimani International Airport","city":"Ahvaz","country":"Iran","countryCode":"IR","lat":31.3364,"lng":48.763789,"timezone":"Asia/Tehran","keywords":"Ahvaz, Ahvaz International Airport, Ahwaz"},{"iata":"AXA","name":"Clayton J. Lloyd International Airport","city":"The Valley","country":"Anguilla","countryCode":"AI","lat":18.204773,"lng":-63.05383,"timezone":"America/Anguilla","keywords":"Wallblake Airport"},{"iata":"AXD","name":"Alexandroupoli Democritus Airport","city":"Alexandroupolis","country":"Greece","countryCode":"GR","lat":40.8559,"lng":25.956301,"timezone":"Europe/Athens","keywords":""},{"iata":"AXF","name":"Alxa Left Banner Bayanhot Airport","city":"Bayanhot","country":"China","countryCode":"CN","lat":38.748317,"lng":105.58416,"timezone":"Asia/Shanghai","keywords":""},{"iata":"AXJ","name":"Amakusa Airport","city":"Amakusa","country":"Japan","countryCode":"JP","lat":32.482498,"lng":130.158997,"timezone":"Asia/Tokyo","keywords":""},{"iata":"AXM","name":"El Eden Airport","city":"Armenia","country":"Colombia","countryCode":"CO","lat":4.45278,"lng":-75.7664,"timezone":"America/Bogota","keywords":""},{"iata":"AXP","name":"Spring Point Airport","city":"Spring Point","country":"Bahamas","countryCode":"BS","lat":22.441799,"lng":-73.970901,"timezone":"America/Nassau","keywords":""},{"iata":"AXR","name":"Arutua Airport","city":"Arutua Airport","country":"French Polynesia","countryCode":"PF","lat":-15.248299598693848,"lng":-146.61700439453125,"timezone":"Pacific/Tahiti","keywords":""},{"iata":"AXT","name":"Akita Airport","city":"Akita","country":"Japan","countryCode":"JP","lat":39.615601,"lng":140.218994,"timezone":"Asia/Tokyo","keywords":""},{"iata":"AXU","name":"Axum Airport","city":"Axum","country":"Ethiopia","countryCode":"ET","lat":14.1468,"lng":38.7728,"timezone":"Africa/Addis_Ababa","keywords":"Aksum, Emperor Yohannes IV Airport"},{"iata":"AYJ","name":"Maharshi Valmiki International Airport","city":"Faizabad","country":"India","countryCode":"IN","lat":26.747736,"lng":82.163664,"timezone":"Asia/Kolkata","keywords":"Maharishi Valmiki International"},{"iata":"AYP","name":"Air Force Colonel Alfredo Mendivil Duarte Airport","city":"Ayacucho","country":"Peru","countryCode":"PE","lat":-13.1548,"lng":-74.204399,"timezone":"America/Lima","keywords":"Coronel FAP Alfredo Mendivil Duarte"},{"iata":"AYQ","name":"Ayers Rock Connellan Airport","city":"Yulara","country":"Australia","countryCode":"AU","lat":-25.185913,"lng":130.97703,"timezone":"Australia/Darwin","keywords":"Ayers Rock, Uluru"},{"iata":"AYT","name":"Antalya International Airport","city":"Antalya","country":"Türkiye","countryCode":"TR","lat":36.898701,"lng":30.800501,"timezone":"Europe/Istanbul","keywords":""},{"iata":"AZA","name":"Mesa Gateway Airport","city":"Mesa","country":"United States","countryCode":"US","lat":33.3078,"lng":-111.654999,"timezone":"America/Phoenix","keywords":"Higley Field, CHD, Phoenix-Mesa Gateway Airport, Williams Air Force Base, Williams Gateway Airport"},{"iata":"AZD","name":"Shahid Sadooghi Airport","city":"Yazd","country":"Iran","countryCode":"IR","lat":31.9048995972,"lng":54.2765007019,"timezone":"Asia/Tehran","keywords":""},{"iata":"AZN","name":"Andijan International Airport","city":"Andijan","country":"Uzbekistan","countryCode":"UZ","lat":40.727699,"lng":72.293999,"timezone":"Asia/Samarkand","keywords":"UTFA, UTKA, Andijan Airport, Andizhan Airport, Andijon Airport"},{"iata":"AZO","name":"Kalamazoo/Battle Creek International Airport","city":"Kalamazoo","country":"United States","countryCode":"US","lat":42.232105,"lng":-85.549637,"timezone":"America/New_York","keywords":""},{"iata":"AZR","name":"Touat-Cheikh Sidi Mohamed Belkebir Airport","city":"Adrar","country":"Algeria","countryCode":"DZ","lat":27.837601,"lng":-0.186414,"timezone":"Africa/Algiers","keywords":"لكبير  مطار أدرار – توات الشيخ سيدي محمد بن"},{"iata":"AZS","name":"Samaná El Catey International Airport","city":"Samana","country":"Dominican Republic","countryCode":"DO","lat":19.269259,"lng":-69.737405,"timezone":"America/Santo_Domingo","keywords":""},{"iata":"BAG","name":"Loakan Airport","city":"Baguio","country":"Philippines","countryCode":"PH","lat":16.375034,"lng":120.619949,"timezone":"Asia/Manila","keywords":"Baguio Airport"},{"iata":"BAH","name":"Bahrain International Airport","city":"Manama","country":"Bahrain","countryCode":"BH","lat":26.267295,"lng":50.63764,"timezone":"Asia/Bahrain","keywords":"مطار البحرين الدولي, EGYR, RAF Bahrain, RAF Muharraq"},{"iata":"BAL","name":"Batman Airport","city":"Batman","country":"Türkiye","countryCode":"TR","lat":37.929001,"lng":41.1166,"timezone":"Europe/Istanbul","keywords":""},{"iata":"BAQ","name":"Ernesto Cortissoz International Airport","city":"Barranquilla","country":"Colombia","countryCode":"CO","lat":10.8896,"lng":-74.7808,"timezone":"America/Bogota","keywords":""},{"iata":"BAR","name":"Qionghai Bo'ao Airport","city":"Qionghai","country":"China","countryCode":"CN","lat":19.140951,"lng":110.452766,"timezone":"Asia/Shanghai","keywords":""},{"iata":"BAS","name":"Ballalae Airport","city":"Ballalae","country":"Solomon Islands","countryCode":"SB","lat":-6.990745,"lng":155.886656,"timezone":"Pacific/Guadalcanal","keywords":""},{"iata":"BAV","name":"Baotou Donghe International Airport","city":"Baotou","country":"China","countryCode":"CN","lat":40.560001,"lng":109.997002,"timezone":"Asia/Shanghai","keywords":"Erliban, 包头东河"},{"iata":"BAX","name":"Barnaul Gherman Titov International Airport","city":"Barnaul","country":"Russia","countryCode":"RU","lat":53.361285,"lng":83.539701,"timezone":"Asia/Krasnoyarsk","keywords":"Аэропорт Барнаул, Barnaul West, Mikhaylovka, Novomikhaylovka"},{"iata":"BAY","name":"Maramureș International Airport","city":"Tăuții-Măgherăuș","country":"Romania","countryCode":"RO","lat":47.658444,"lng":23.464445,"timezone":"Europe/Bucharest","keywords":"Baia Mare"},{"iata":"BAZ","name":"Barcelos Airport","city":"Barcelos","country":"Brazil","countryCode":"BR","lat":-0.981191,"lng":-62.918603,"timezone":"America/Boa_Vista","keywords":""},{"iata":"BBA","name":"Balmaceda Airport","city":"Balmaceda","country":"Chile","countryCode":"CL","lat":-45.915968,"lng":-71.689499,"timezone":"America/Santiago","keywords":""},{"iata":"BBG","name":"Butaritari Airport","city":"Butaritari","country":"Kiribati","countryCode":"KI","lat":3.08583,"lng":172.811005,"timezone":"Pacific/Tarawa","keywords":"Makin"},{"iata":"BBI","name":"Biju Patnaik International Airport","city":"Bhubaneswar","country":"India","countryCode":"IN","lat":20.251021,"lng":85.814747,"timezone":"Asia/Calcutta","keywords":""},{"iata":"BBK","name":"Kasane International Airport","city":"Kasane","country":"Botswana","countryCode":"BW","lat":-17.831653,"lng":25.166195,"timezone":"Africa/Gaborone","keywords":""},{"iata":"BBM","name":"Battambang Airport","city":"Battambang","country":"Cambodia","countryCode":"KH","lat":13.0956,"lng":103.223999,"timezone":"Asia/Phnom_Penh","keywords":""},{"iata":"BBN","name":"Bario Airport","city":"Bario","country":"Malaysia","countryCode":"MY","lat":3.734648,"lng":115.478548,"timezone":"Asia/Kuala_Lumpur","keywords":""},{"iata":"BBO","name":"Berbera Airport","city":"Berbera","country":"Somalia","countryCode":"SO","lat":10.385035,"lng":44.936723,"timezone":"Africa/Mogadishu","keywords":""},{"iata":"BBQ","name":"Burton-Nibbs International Airport","city":"Codrington","country":"Antigua & Barbuda","countryCode":"AG","lat":17.621194,"lng":-61.798347,"timezone":"America/Antigua","keywords":"Barbuda International Airport, New Barbuda Airport"},{"iata":"BBR","name":"Basse-Terre Baillif Airport","city":"Basse-Terre","country":"Guadeloupe","countryCode":"GP","lat":16.013648,"lng":-61.742928,"timezone":"America/Guadeloupe","keywords":""},{"iata":"BBU","name":"Bucharest Băneasa Aurel Vlaicu International Airport","city":"Bucharest","country":"Romania","countryCode":"RO","lat":44.503133,"lng":26.102944,"timezone":"Europe/Bucharest","keywords":"BUH, Băneasa, Aurel Vlaicu International, Bucharest City"},{"iata":"BCA","name":"Gustavo Rizo Airport","city":"Baracoa","country":"Cuba","countryCode":"CU","lat":20.365299224853516,"lng":-74.5062026977539,"timezone":"America/Havana","keywords":""},{"iata":"BCD","name":"Bacolod-Silay International Airport","city":"Bacolod City","country":"Philippines","countryCode":"PH","lat":10.776237,"lng":123.018879,"timezone":"Asia/Manila","keywords":""},{"iata":"BCH","name":"Baucau Airport","city":"Baucau","country":"Timor-Leste","countryCode":"TL","lat":-8.486479,"lng":126.399981,"timezone":"Asia/Dili","keywords":"English Madeira airport, Cakung Airport"},{"iata":"BCI","name":"Barcaldine Airport","city":"Barcaldine","country":"Australia","countryCode":"AU","lat":-23.566268,"lng":145.302086,"timezone":"Australia/Brisbane","keywords":""},{"iata":"BCM","name":"Bacău George Enescu International  Airport","city":"Bacău","country":"Romania","countryCode":"RO","lat":46.5219,"lng":26.910299,"timezone":"Europe/Bucharest","keywords":"Bacau, RoAF 95th Air Base"},{"iata":"BCN","name":"Josep Tarradellas Barcelona-El Prat Airport","city":"Barcelona","country":"Spain","countryCode":"ES","lat":41.2971,"lng":2.07846,"timezone":"Europe/Madrid","keywords":"El Prat Airport,Barcelona International,Josep Tarradellas Barcelona-El Prat Airport"},{"iata":"BCO","name":"Jinka Airport","city":"Jinka","country":"Ethiopia","countryCode":"ET","lat":5.749655,"lng":36.560165,"timezone":"Africa/Addis_Ababa","keywords":"Baco Airport"},{"iata":"BCU","name":"Sir Abubakar Tafawa Balewa Bauchi State International Airport","city":"Bauchi","country":"Nigeria","countryCode":"NG","lat":10.482833,"lng":9.744,"timezone":"Africa/Lagos","keywords":"Bauchi State Airport"},{"iata":"BDA","name":"L.F. Wade International Airport","city":"Hamilton","country":"Bermuda","countryCode":"BM","lat":32.363802,"lng":-64.67824,"timezone":"Atlantic/Bermuda","keywords":"Kindley Air Force Base, Fort Bell Army Airfield, NAS Bermuda, Naval Air Station Bermuda"},{"iata":"BDB","name":"Bundaberg Airport","city":"Bundaberg","country":"Australia","countryCode":"AU","lat":-24.905039,"lng":152.322612,"timezone":"Australia/Brisbane","keywords":""},{"iata":"BDD","name":"Badu Island Airport","city":"Badu Island","country":"Australia","countryCode":"AU","lat":-10.14955,"lng":142.173665,"timezone":"Australia/Brisbane","keywords":""},{"iata":"BDH","name":"Bandar Lengeh International Airport","city":"Bandar Lengeh","country":"Iran","countryCode":"IR","lat":26.532283,"lng":54.82484,"timezone":"Asia/Tehran","keywords":"Lengeh"},{"iata":"BDJ","name":"Syamsudin Noor International Airport","city":"Banjarbaru","country":"Indonesia","countryCode":"ID","lat":-3.440112,"lng":114.761209,"timezone":"Asia/Makassar","keywords":"WRBB, Banjarmasin, Banjarbaru"},{"iata":"BDL","name":"Bradley International Airport","city":"Hartford","country":"United States","countryCode":"US","lat":41.938555,"lng":-72.688016,"timezone":"America/New_York","keywords":"HFD, Hartford"},{"iata":"BDO","name":"Husein Sastranegara International Airport","city":"Bandung","country":"Indonesia","countryCode":"ID","lat":-6.90063,"lng":107.575996,"timezone":"Asia/Jakarta","keywords":"WIIB"},{"iata":"BDP","name":"Bhadrapur Airport","city":"Bhadrapur","country":"Nepal","countryCode":"NP","lat":26.5708007812,"lng":88.07959747310001,"timezone":"Asia/Katmandu","keywords":"Chandragadhi Airport"},{"iata":"BDQ","name":"Vadodara International Airport","city":"Vadodara","country":"India","countryCode":"IN","lat":22.336201,"lng":73.226303,"timezone":"Asia/Calcutta","keywords":"Civil Airport Harni"},{"iata":"BDS","name":"Brindisi Airport","city":"Brindisi","country":"Italy","countryCode":"IT","lat":40.6576,"lng":17.947001,"timezone":"Europe/Rome","keywords":"Brindisi Papola Casale Airport, Brindisi Salento Airport, Brindisi Casale Antonio Papolo Airport, Salento Airport"},{"iata":"BDT","name":"Gbadolite Airport","city":"Gbadolite","country":"Congo - Kinshasa","countryCode":"CD","lat":4.252745,"lng":20.975271,"timezone":"Africa/Kinshasa","keywords":"Moanda"},{"iata":"BDU","name":"Bardufoss Airport","city":"Målselv","country":"Norway","countryCode":"NO","lat":69.055801,"lng":18.5404,"timezone":"Europe/Oslo","keywords":""},{"iata":"BEB","name":"Benbecula Airport","city":"Balivanich","country":"United Kingdom","countryCode":"GB","lat":57.481098,"lng":-7.36278,"timezone":"Europe/London","keywords":""},{"iata":"BED","name":"Laurence G Hanscom Field","city":"Bedford","country":"United States","countryCode":"US","lat":42.470001,"lng":-71.289001,"timezone":"America/New_York","keywords":"Hanscom Air Force Base"},{"iata":"BEF","name":"Bluefields Airport","city":"Bluefields","country":"Nicaragua","countryCode":"NI","lat":11.991,"lng":-83.774101,"timezone":"America/Managua","keywords":""},{"iata":"BEG","name":"Belgrade Nikola Tesla Airport","city":"Belgrade","country":"Serbia","countryCode":"RS","lat":44.818401,"lng":20.309099,"timezone":"Europe/Belgrade","keywords":"Beograd, Surčin Airport"},{"iata":"BEJ","name":"Kalimarau Airport","city":"Tanjung Redeb - Borneo Island","country":"Indonesia","countryCode":"ID","lat":2.14776,"lng":117.430705,"timezone":"Asia/Makassar","keywords":"Berau Airport, WALK, WRLK"},{"iata":"BEK","name":"Bareilly Air Force Station","city":"Bareilly","country":"India","countryCode":"IN","lat":28.4221,"lng":79.450798,"timezone":"Asia/Calcutta","keywords":"Trishul Air Base"},{"iata":"BEL","name":"Val de Cans/Júlio Cezar Ribeiro International Airport","city":"Belém","country":"Brazil","countryCode":"BR","lat":-1.379279,"lng":-48.476207,"timezone":"America/Belem","keywords":""},{"iata":"BEM","name":"Beni Mellal Airport","city":"Oulad Yaich","country":"Morocco","countryCode":"MA","lat":32.401895,"lng":-6.315905,"timezone":"Africa/Casablanca","keywords":""},{"iata":"BEN","name":"Benina International Airport","city":"Benina","country":"Libya","countryCode":"LY","lat":32.096802,"lng":20.269501,"timezone":"Africa/Tripoli","keywords":"Benghazi, Soluch Airfield"},{"iata":"BER","name":"Berlin Brandenburg Airport","city":"Berlin","country":"Germany","countryCode":"DE","lat":52.361738,"lng":13.502341,"timezone":"Europe/Berlin","keywords":"Willy Brandt"},{"iata":"BES","name":"Brest Bretagne airport","city":"Brest","country":"France","countryCode":"FR","lat":48.447899,"lng":-4.41854,"timezone":"Europe/Paris","keywords":""},{"iata":"BET","name":"Bethel Airport","city":"Bethel","country":"United States","countryCode":"US","lat":60.77980042,"lng":-161.8379974,"timezone":"America/Anchorage","keywords":""},{"iata":"BEU","name":"Bedourie Airport","city":"Bedourie","country":"Australia","countryCode":"AU","lat":-24.3461,"lng":139.460007,"timezone":"Australia/Brisbane","keywords":""},{"iata":"BEW","name":"Beira International Airport","city":"Beira","country":"Mozambique","countryCode":"MZ","lat":-19.7964,"lng":34.9076,"timezone":"Africa/Maputo","keywords":""},{"iata":"BEY","name":"Beirut Rafic Hariri International Airport","city":"Beirut","country":"Lebanon","countryCode":"LB","lat":33.819833,"lng":35.487443,"timezone":"Asia/Beirut","keywords":"Chaldea, Beirut Air Base, مطار بيروت رفيق الحريري الدولي"},{"iata":"BFD","name":"Bradford Regional Airport","city":"Bradford","country":"United States","countryCode":"US","lat":41.8031005859375,"lng":-78.64009857177734,"timezone":"America/New_York","keywords":""},{"iata":"BFF","name":"Western Neb. Rgnl/William B. Heilig Airport","city":"Scottsbluff","country":"United States","countryCode":"US","lat":41.87400055,"lng":-103.5960007,"timezone":"America/Denver","keywords":"William B. Heilig Field"},{"iata":"BFI","name":"King County International Airport - Boeing Field","city":"Seattle","country":"United States","countryCode":"US","lat":47.527042,"lng":-122.29995,"timezone":"America/Los_Angeles","keywords":"Boeing Field"},{"iata":"BFJ","name":"Bijie Feixiong Airport","city":"Bijie","country":"China","countryCode":"CN","lat":27.267066,"lng":105.472097,"timezone":"Asia/Shanghai","keywords":""},{"iata":"BFL","name":"Meadows Field","city":"Bakersfield","country":"United States","countryCode":"US","lat":35.433601,"lng":-119.056999,"timezone":"America/Los_Angeles","keywords":""},{"iata":"BFN","name":"Bram Fischer International Airport","city":"Bloemfontein","country":"South Africa","countryCode":"ZA","lat":-29.092699,"lng":26.302401,"timezone":"Africa/Johannesburg","keywords":"AFB Bloemspruit, Bloemspruit"},{"iata":"BFQ","name":"Bahia Piña Airport","city":"Puerto Piña","country":"Panama","countryCode":"PA","lat":7.58737,"lng":-78.179939,"timezone":"UTC","keywords":""},{"iata":"BFS","name":"Belfast International Airport","city":"Belfast","country":"United Kingdom","countryCode":"GB","lat":54.6575012207,"lng":-6.2158298492399995,"timezone":"Europe/London","keywords":"Aldergrove, RAF Aldergrove"},{"iata":"BFV","name":"Buri Ram Airport","city":"Buriram","country":"Thailand","countryCode":"TH","lat":15.2295,"lng":103.252998,"timezone":"Asia/Bangkok","keywords":""},{"iata":"BFY","name":"Bengbu Tenghu Airport","city":"Bengbu","country":"China","countryCode":"CN","lat":33.166292,"lng":117.058344,"timezone":"Asia/Shanghai","keywords":"蚌埠滕湖机场"},{"iata":"BGA","name":"Palonegro Airport","city":"Bucaramanga","country":"Colombia","countryCode":"CO","lat":7.1265,"lng":-73.1848,"timezone":"America/Bogota","keywords":""},{"iata":"BGC","name":"Bragança Airport","city":"Bragança","country":"Portugal","countryCode":"PT","lat":41.8578,"lng":-6.70713,"timezone":"Europe/Lisbon","keywords":""},{"iata":"BGF","name":"Bangui M'Poko International Airport","city":"Bangui","country":"Central African Republic","countryCode":"CF","lat":4.39848,"lng":18.518801,"timezone":"Africa/Bangui","keywords":""},{"iata":"BGG","name":"Bingöl Airport","city":"Bingöl","country":"Türkiye","countryCode":"TR","lat":38.860131,"lng":40.594489,"timezone":"Europe/Istanbul","keywords":"Çeltiksuyu"},{"iata":"BGI","name":"Grantley Adams International Airport","city":"Bridgetown","country":"Barbados","countryCode":"BB","lat":13.074667,"lng":-59.491034,"timezone":"America/Barbados","keywords":"Seawell"},{"iata":"BGK","name":"Big Creek Airport","city":"Big Creek","country":"Belize","countryCode":"BZ","lat":16.519369,"lng":-88.407913,"timezone":"UTC","keywords":""},{"iata":"BGM","name":"Greater Binghamton/Edwin A Link field","city":"Binghamton","country":"United States","countryCode":"US","lat":42.20869827,"lng":-75.97979736,"timezone":"America/New_York","keywords":"Broome County Airport, Edwin A Link Field"},{"iata":"BGO","name":"Bergen Airport, Flesland","city":"Bergen","country":"Norway","countryCode":"NO","lat":60.2934,"lng":5.21814,"timezone":"Europe/Oslo","keywords":""},{"iata":"BGR","name":"Bangor International Airport","city":"Bangor","country":"United States","countryCode":"US","lat":44.806364,"lng":-68.826668,"timezone":"America/New_York","keywords":""},{"iata":"BGW","name":"Baghdad International Airport / New Al Muthana Air Base","city":"Baghdad","country":"Iraq","countryCode":"IQ","lat":33.262501,"lng":44.2346,"timezone":"Asia/Baghdad","keywords":"SDA, BIAP, VBC, ORBS, Camp Sather, Saddam International Airport, Al Anbar Airport"},{"iata":"BGY","name":"Il Caravaggio International Airport","city":"Milan","country":"Italy","countryCode":"IT","lat":45.669362,"lng":9.708851,"timezone":"Europe/Rome","keywords":"Orio al Serio International Airport, Il Caravaggio International Airport, Milan Bergamo Airport"},{"iata":"BHB","name":"Hancock County-Bar Harbor Airport","city":"Bar Harbor","country":"United States","countryCode":"US","lat":44.45000076,"lng":-68.3615036,"timezone":"America/New_York","keywords":""},{"iata":"BHD","name":"George Best Belfast City Airport","city":"Belfast","country":"United Kingdom","countryCode":"GB","lat":54.618099,"lng":-5.8725,"timezone":"Europe/London","keywords":""},{"iata":"BHE","name":"Woodbourne Airport","city":"Blenheim","country":"New Zealand","countryCode":"NZ","lat":-41.5182991027832,"lng":173.8699951171875,"timezone":"Pacific/Auckland","keywords":""},{"iata":"BHH","name":"Bisha Airport","city":"Bisha","country":"Saudi Arabia","countryCode":"SA","lat":19.9844,"lng":42.620899,"timezone":"Asia/Riyadh","keywords":""},{"iata":"BHI","name":"Comandante Espora Airport","city":"Bahía Blanca","country":"Argentina","countryCode":"AR","lat":-38.725,"lng":-62.1693,"timezone":"America/Buenos_Aires","keywords":"Bahía Blanca Airport"},{"iata":"BHJ","name":"Bhuj Airport","city":"Bhuj","country":"India","countryCode":"IN","lat":23.2877998352,"lng":69.6701965332,"timezone":"Asia/Calcutta","keywords":"Bhuj Rudra Mata Air Force Station, Shyamji Krishna Verma, Bhuj Airport"},{"iata":"BHK","name":"Bukhara International Airport","city":"Bukhara","country":"Uzbekistan","countryCode":"UZ","lat":39.775319,"lng":64.482279,"timezone":"Asia/Samarkand","keywords":"UTSB, Buhara, Buxoro"},{"iata":"BHM","name":"Birmingham-Shuttlesworth International Airport","city":"Birmingham","country":"United States","countryCode":"US","lat":33.562877,"lng":-86.750712,"timezone":"America/Chicago","keywords":""},{"iata":"BHO","name":"Raja Bhoj International Airport","city":"Bhopal","country":"India","countryCode":"IN","lat":23.2875,"lng":77.337402,"timezone":"Asia/Calcutta","keywords":""},{"iata":"BHQ","name":"Broken Hill Airport","city":"Broken Hill","country":"Australia","countryCode":"AU","lat":-32.0013999939,"lng":141.472000122,"timezone":"Australia/Adelaide","keywords":""},{"iata":"BHR","name":"Bharatpur Airport","city":"Bharatpur","country":"Nepal","countryCode":"NP","lat":27.678101,"lng":84.429398,"timezone":"Asia/Katmandu","keywords":""},{"iata":"BHS","name":"Bathurst Airport","city":"Bathurst","country":"Australia","countryCode":"AU","lat":-33.406817,"lng":149.651161,"timezone":"Australia/Sydney","keywords":""},{"iata":"BHU","name":"Bhavnagar Airport","city":"Bhavnagar","country":"India","countryCode":"IN","lat":21.752199173,"lng":72.1852035522,"timezone":"Asia/Calcutta","keywords":""},{"iata":"BHV","name":"Bahawalpur Airport","city":"Bahawalpur","country":"Pakistan","countryCode":"PK","lat":29.348100662231445,"lng":71.71800231933594,"timezone":"Asia/Karachi","keywords":""},{"iata":"BHX","name":"Birmingham Airport","city":"Birmingham","country":"United Kingdom","countryCode":"GB","lat":52.453899,"lng":-1.74803,"timezone":"Europe/London","keywords":"Birmingham International Airport"},{"iata":"BHY","name":"Beihai Fucheng Airport","city":"Beihai","country":"China","countryCode":"CN","lat":21.538659,"lng":109.293683,"timezone":"Asia/Shanghai","keywords":"北海，北海福成机场"},{"iata":"BIA","name":"Bastia-Poretta International airport","city":"Bastia","country":"France","countryCode":"FR","lat":42.5527,"lng":9.48373,"timezone":"Europe/Paris","keywords":""},{"iata":"BIC","name":"Aérodrome de Belle Île","city":"Bangor","country":"France","countryCode":"FR","lat":47.325256,"lng":-3.201255,"timezone":"Europe/Paris","keywords":"Palais-Belle-İle-en-Mer Aerodrome"},{"iata":"BID","name":"Block Island State Airport","city":"Block Island","country":"United States","countryCode":"US","lat":41.168446,"lng":-71.578631,"timezone":"America/New_York","keywords":""},{"iata":"BIH","name":"Eastern Sierra Regional Airport","city":"Bishop","country":"United States","countryCode":"US","lat":37.3731,"lng":-118.363998,"timezone":"America/Los_Angeles","keywords":""},{"iata":"BIK","name":"Frans Kaisiepo Airport","city":"Biak","country":"Indonesia","countryCode":"ID","lat":-1.19002,"lng":136.108002,"timezone":"Asia/Jayapura","keywords":""},{"iata":"BIL","name":"Billings Logan International Airport","city":"Billings","country":"United States","countryCode":"US","lat":45.808932,"lng":-108.541242,"timezone":"America/Denver","keywords":""},{"iata":"BIM","name":"South Bimini Airport","city":"South Bimini","country":"Bahamas","countryCode":"BS","lat":25.6998996735,"lng":-79.2647018433,"timezone":"America/Nassau","keywords":""},{"iata":"BIO","name":"Bilbao Airport","city":"Bilbao","country":"Spain","countryCode":"ES","lat":43.301102,"lng":-2.91061,"timezone":"Europe/Madrid","keywords":""},{"iata":"BIQ","name":"Biarritz Pays Basque airport","city":"Biarritz","country":"France","countryCode":"FR","lat":43.468372,"lng":-1.523223,"timezone":"Europe/Paris","keywords":""},{"iata":"BIR","name":"Biratnagar Airport","city":"Biratnagar","country":"Nepal","countryCode":"NP","lat":26.48150062561035,"lng":87.26399993896484,"timezone":"Asia/Katmandu","keywords":""},{"iata":"BIS","name":"Bismarck Municipal Airport","city":"Bismarck","country":"United States","countryCode":"US","lat":46.772734,"lng":-100.746874,"timezone":"America/Chicago","keywords":"Burleigh County Airport"},{"iata":"BJA","name":"Soummam–Abane Ramdane Airport","city":"Béjaïa","country":"Algeria","countryCode":"DZ","lat":36.712547,"lng":5.069909,"timezone":"Africa/Algiers","keywords":"Béjaïa, Soummam"},{"iata":"BJB","name":"Bojnord Airport","city":"Bojnord","country":"Iran","countryCode":"IR","lat":37.49300003051758,"lng":57.30820083618164,"timezone":"Asia/Tehran","keywords":"Bojnourd"},{"iata":"BJC","name":"Rocky Mountain Metropolitan Airport","city":"Denver","country":"United States","countryCode":"US","lat":39.908798,"lng":-105.116997,"timezone":"America/Denver","keywords":"Jefferson County Airport, Jeffco Airport"},{"iata":"BJF","name":"Båtsfjord Airport","city":"Båtsfjord","country":"Norway","countryCode":"NO","lat":70.60025,"lng":29.692612,"timezone":"Europe/Oslo","keywords":""},{"iata":"BJL","name":"Banjul International Airport","city":"Banjul","country":"Gambia","countryCode":"GM","lat":13.338,"lng":-16.652201,"timezone":"Africa/Banjul","keywords":"Yundum international Airport"},{"iata":"BJM","name":"Bujumbura Melchior Ndadaye International Airport","city":"Bujumbura","country":"Burundi","countryCode":"BI","lat":-3.32402,"lng":29.318501,"timezone":"Africa/Bujumbura","keywords":""},{"iata":"BJR","name":"Bahir Dar Airport","city":"Bahir Dar","country":"Ethiopia","countryCode":"ET","lat":11.6081,"lng":37.321602,"timezone":"Africa/Addis_Ababa","keywords":"Dejazmach Belay Zeleke"},{"iata":"BJV","name":"Milas Bodrum International Airport","city":"Bodrum","country":"Türkiye","countryCode":"TR","lat":37.249314,"lng":27.66401,"timezone":"Europe/Istanbul","keywords":""},{"iata":"BJX","name":"Guanajuato International Airport","city":"Silao","country":"Mexico","countryCode":"MX","lat":20.992695,"lng":-101.480284,"timezone":"America/Mexico_City","keywords":"Del Bajío International Airport, León/Bajío International Airport"},{"iata":"BJZ","name":"Badajoz Airport","city":"Badajoz","country":"Spain","countryCode":"ES","lat":38.8913,"lng":-6.82133,"timezone":"Europe/Madrid","keywords":"Talavera La Real Airport"},{"iata":"BKC","name":"Buckland Airport","city":"Buckland","country":"United States","countryCode":"US","lat":65.981598,"lng":-161.149002,"timezone":"America/Anchorage","keywords":"7K5"},{"iata":"BKG","name":"Branson Airport","city":"Branson","country":"United States","countryCode":"US","lat":36.532082,"lng":-93.200544,"timezone":"America/Chicago","keywords":""},{"iata":"BKI","name":"Kota Kinabalu International Airport","city":"Kota Kinabalu","country":"Malaysia","countryCode":"MY","lat":5.932743,"lng":116.049324,"timezone":"Asia/Kuala_Lumpur","keywords":"Lapangan Terbang Antarabangsa Kota Kinabalu, Jesselton Airfield"},{"iata":"BKK","name":"Suvarnabhumi Airport","city":"Bangkok","country":"Thailand","countryCode":"TH","lat":13.6811,"lng":100.747002,"timezone":"Asia/Bangkok","keywords":""},{"iata":"BKM","name":"Bakalalan Airport","city":"Bakalalan","country":"Malaysia","countryCode":"MY","lat":3.974,"lng":115.617996,"timezone":"Asia/Kuala_Lumpur","keywords":""},{"iata":"BKN","name":"Balkanabat International Airport","city":"Balkanabat","country":"Turkmenistan","countryCode":"TM","lat":39.681052,"lng":54.206008,"timezone":"UTC","keywords":"Аэродром Джебел, Jebel Airport"},{"iata":"BKO","name":"Modibo Keita International Airport","city":"Bamako","country":"Mali","countryCode":"ML","lat":12.5335,"lng":-7.94994,"timezone":"Africa/Bamako","keywords":"Senou Airport"},{"iata":"BKQ","name":"Blackall Airport","city":"Blackall","country":"Australia","countryCode":"AU","lat":-24.431678,"lng":145.429716,"timezone":"Australia/Brisbane","keywords":""},{"iata":"BKS","name":"Fatmawati Soekarno Airport","city":"Bengkulu","country":"Indonesia","countryCode":"ID","lat":-3.8637,"lng":102.338997,"timezone":"Asia/Jakarta","keywords":"WIPL, Padang Kemiling Airport"},{"iata":"BKW","name":"Raleigh County Memorial Airport","city":"Beaver","country":"United States","countryCode":"US","lat":37.7873,"lng":-81.124199,"timezone":"America/New_York","keywords":"Beckley"},{"iata":"BKZ","name":"Bukoba Airport","city":"Bukoba","country":"Tanzania","countryCode":"TZ","lat":-1.332,"lng":31.8212,"timezone":"Africa/Dar_es_Salaam","keywords":""},{"iata":"BLA","name":"General José Antonio Anzoategui International Airport","city":"Barcelona","country":"Venezuela","countryCode":"VE","lat":10.111111,"lng":-64.692222,"timezone":"America/Caracas","keywords":"Barcelona, Puero La Cruz,Lecheria"},{"iata":"BLB","name":"Panamá Pacífico International Airport","city":"Panamá City","country":"Panama","countryCode":"PA","lat":8.91479,"lng":-79.599602,"timezone":"America/Panama","keywords":"HOW, Howard Air Force Base, Panama Pacifico"},{"iata":"BLD","name":"Boulder City Municipal Airport","city":"Boulder City","country":"United States","countryCode":"US","lat":35.947161,"lng":-114.858799,"timezone":"America/Denver","keywords":"61B"},{"iata":"BLE","name":"Dala Airport","city":"Borlange","country":"Sweden","countryCode":"SE","lat":60.422001,"lng":15.5152,"timezone":"Europe/Stockholm","keywords":""},{"iata":"BLI","name":"Bellingham International Airport","city":"Bellingham","country":"United States","countryCode":"US","lat":48.79280090332031,"lng":-122.53800201416016,"timezone":"America/Los_Angeles","keywords":""},{"iata":"BLJ","name":"Batna Mostefa Ben Boulaid Airport","city":"Batna","country":"Algeria","countryCode":"DZ","lat":35.752102,"lng":6.30859,"timezone":"Africa/Algiers","keywords":""},{"iata":"BLL","name":"Billund Airport","city":"Billund","country":"Denmark","countryCode":"DK","lat":55.740335,"lng":9.157019,"timezone":"Europe/Copenhagen","keywords":""},{"iata":"BLQ","name":"Bologna Guglielmo Marconi Airport","city":"Bologna","country":"Italy","countryCode":"IT","lat":44.5354,"lng":11.2887,"timezone":"Europe/Rome","keywords":"Guglielmo Marconi Airport, Borgo Panigale Airport"},{"iata":"BLR","name":"Kempegowda International Airport Bengaluru","city":"Bengaluru","country":"India","countryCode":"IN","lat":13.1979,"lng":77.706299,"timezone":"Asia/Calcutta","keywords":"Bangalore"},{"iata":"BLV","name":"Scott AFB/Midamerica Airport","city":"Belleville","country":"United States","countryCode":"US","lat":38.5452,"lng":-89.835197,"timezone":"America/Chicago","keywords":"Scott Air Force Base"},{"iata":"BLW","name":"Beledweyne Airport","city":"Beledweyne","country":"Somalia","countryCode":"SO","lat":4.766976,"lng":45.2388,"timezone":"UTC","keywords":"Belet Uen, Beletweyn, Duqow Ahmed Fiidow, Beletwene"},{"iata":"BLZ","name":"Chileka International Airport","city":"Blantyre","country":"Malawi","countryCode":"MW","lat":-15.677189,"lng":34.972319,"timezone":"Africa/Blantyre","keywords":""},{"iata":"BMA","name":"Stockholm-Bromma Airport","city":"Stockholm","country":"Sweden","countryCode":"SE","lat":59.354401,"lng":17.9417,"timezone":"Europe/Stockholm","keywords":""},{"iata":"BME","name":"Broome International Airport","city":"Broome","country":"Australia","countryCode":"AU","lat":-17.949194,"lng":122.2283,"timezone":"Australia/Perth","keywords":""},{"iata":"BMI","name":"Central Illinois Regional Airport at Bloomington-Normal","city":"Bloomington/Normal","country":"United States","countryCode":"US","lat":40.4771,"lng":-88.915901,"timezone":"America/Chicago","keywords":""},{"iata":"BMK","name":"Borkum Airport","city":"Borkum","country":"Germany","countryCode":"DE","lat":53.59639,"lng":6.709167,"timezone":"Europe/Berlin","keywords":"Borkum"},{"iata":"BMO","name":"Banmaw Airport","city":"Banmaw","country":"Myanmar (Burma)","countryCode":"MM","lat":24.27044,"lng":97.2476,"timezone":"Asia/Rangoon","keywords":"Banmaws, Bhamo"},{"iata":"BMR","name":"Baltrum Airport","city":"Baltrum","country":"Germany","countryCode":"DE","lat":53.72485,"lng":7.373257,"timezone":"Europe/Berlin","keywords":""},{"iata":"BMU","name":"Sultan Muhammad Salahuddin Airport","city":"Bima","country":"Indonesia","countryCode":"ID","lat":-8.537184,"lng":118.685002,"timezone":"Asia/Makassar","keywords":"WRRB, PBW, Palibelo Airport, Bima, Raba Airfield"},{"iata":"BMV","name":"Buon Ma Thuot Airport","city":"Buon Ma Thuot","country":"Vietnam","countryCode":"VN","lat":12.668299675,"lng":108.120002747,"timezone":"Asia/Saigon","keywords":""},{"iata":"BMW","name":"Bordj Badji Mokhtar Airport","city":"Bordj Badji Mokhtar","country":"Algeria","countryCode":"DZ","lat":21.3778,"lng":0.92698,"timezone":"Africa/Algiers","keywords":""},{"iata":"BMY","name":"Île Art - Waala Airport","city":"Waala","country":"New Caledonia","countryCode":"NC","lat":-19.720521,"lng":163.661077,"timezone":"Pacific/Noumea","keywords":"Belep Islands Airport"},{"iata":"BNA","name":"Nashville International Airport","city":"Nashville","country":"United States","countryCode":"US","lat":36.1245,"lng":-86.6782,"timezone":"America/Chicago","keywords":""},{"iata":"BNB","name":"Boende Airport","city":"Boende","country":"Congo - Kinshasa","countryCode":"CD","lat":-0.286652,"lng":20.883551,"timezone":"UTC","keywords":""},{"iata":"BND","name":"Bandar Abbas International Airport","city":"Bandar Abbas","country":"Iran","countryCode":"IR","lat":27.2183,"lng":56.3778,"timezone":"Asia/Tehran","keywords":""},{"iata":"BNE","name":"Brisbane International Airport","city":"Brisbane","country":"Australia","countryCode":"AU","lat":-27.384199142456055,"lng":153.11700439453125,"timezone":"Australia/Brisbane","keywords":""},{"iata":"BNI","name":"Benin Airport","city":"Benin","country":"Nigeria","countryCode":"NG","lat":6.316979885101318,"lng":5.5995001792907715,"timezone":"Africa/Lagos","keywords":""},{"iata":"BNK","name":"Ballina Byron Gateway Airport","city":"Ballina","country":"Australia","countryCode":"AU","lat":-28.833236,"lng":153.561471,"timezone":"Australia/Sydney","keywords":""},{"iata":"BNN","name":"Brønnøysund Airport, Brønnøy","city":"Brønnøy","country":"Norway","countryCode":"NO","lat":65.461098,"lng":12.2175,"timezone":"Europe/Oslo","keywords":"Bronnoy"},{"iata":"BNS","name":"Barinas Airport","city":"Barinas","country":"Venezuela","countryCode":"VE","lat":8.615,"lng":-70.214167,"timezone":"America/Caracas","keywords":""},{"iata":"BNX","name":"Banja Luka International Airport","city":"Mahovljani","country":"Bosnia & Herzegovina","countryCode":"BA","lat":44.941399,"lng":17.297501,"timezone":"Europe/Sarajevo","keywords":"Mahovljani Airport"},{"iata":"BNY","name":"Bellona/Anua Airport","city":"Anua","country":"Solomon Islands","countryCode":"SB","lat":-11.302222222200001,"lng":159.798333333,"timezone":"UTC","keywords":""},{"iata":"BOB","name":"Bora Bora Airport","city":"Motu Mute","country":"French Polynesia","countryCode":"PF","lat":-16.444400787353516,"lng":-151.75100708007812,"timezone":"Pacific/Tahiti","keywords":""},{"iata":"BOC","name":"Bocas del Toro \"Isla Colón\" International Airport","city":"Isla Colón","country":"Panama","countryCode":"PA","lat":9.34085,"lng":-82.250801,"timezone":"America/Panama","keywords":"Jose Ezequiel Hall"},{"iata":"BOD","name":"Bordeaux–Mérignac Airport","city":"Bordeaux","country":"France","countryCode":"FR","lat":44.82865,"lng":-0.715356,"timezone":"Europe/Paris","keywords":""},{"iata":"BOG","name":"El Dorado International Airport","city":"Bogota","country":"Colombia","countryCode":"CO","lat":4.70159,"lng":-74.1469,"timezone":"America/Bogota","keywords":"Cundinamarca"},{"iata":"BOH","name":"Bournemouth Airport","city":"Bournemouth","country":"United Kingdom","countryCode":"GB","lat":50.780483,"lng":-1.839576,"timezone":"Europe/London","keywords":"RAF Hurn"},{"iata":"BOI","name":"Boise Air Terminal/Gowen Field","city":"Boise","country":"United States","countryCode":"US","lat":43.5644,"lng":-116.223,"timezone":"America/Denver","keywords":"Boise Air Terminal, Gowen Field"},{"iata":"BOJ","name":"Burgas Airport","city":"Burgas","country":"Bulgaria","countryCode":"BG","lat":42.569917,"lng":27.515173,"timezone":"Europe/Sofia","keywords":"Bourgas"},{"iata":"BOM","name":"Chhatrapati Shivaji Maharaj International Airport","city":"Mumbai","country":"India","countryCode":"IN","lat":19.088699,"lng":72.867897,"timezone":"Asia/Calcutta","keywords":"Bombay, Sahar International Airport"},{"iata":"BON","name":"Flamingo International Airport","city":"Kralendijk","country":"Caribbean Netherlands","countryCode":"BQ","lat":12.131,"lng":-68.268501,"timezone":"America/Curacao","keywords":"Bonaire"},{"iata":"BOO","name":"Bodø Airport","city":"Bodø","country":"Norway","countryCode":"NO","lat":67.269203,"lng":14.3653,"timezone":"Europe/Oslo","keywords":"Bodø Air Force Base, Bodø Main Air Station"},{"iata":"BOR","name":"Bokeo International Airport","city":"Ton Phueng","country":"Laos","countryCode":"LA","lat":20.323986,"lng":100.165392,"timezone":"Europe/Paris","keywords":""},{"iata":"BOS","name":"Boston Logan International Airport","city":"Boston","country":"United States","countryCode":"US","lat":42.36197,"lng":-71.0079,"timezone":"America/New_York","keywords":"General Edward Lawrence Logan International Airport"},{"iata":"BOT","name":"Bosset Airport","city":"Bosset","country":"Papua New Guinea","countryCode":"PG","lat":-7.237257,"lng":141.1063222,"timezone":"UTC","keywords":"Boset"},{"iata":"BOY","name":"Bobo Dioulasso Airport","city":"Bobo Dioulasso","country":"Burkina Faso","countryCode":"BF","lat":11.1601,"lng":-4.33097,"timezone":"Africa/Ouagadougou","keywords":""},{"iata":"BPE","name":"Qinhuangdao Beidaihe Airport","city":"Qinhuangdao","country":"China","countryCode":"CN","lat":39.666384,"lng":119.061384,"timezone":"Asia/Shanghai","keywords":""},{"iata":"BPL","name":"Bole Alashankou Airport","city":"Bole","country":"China","countryCode":"CN","lat":44.895461,"lng":82.30007,"timezone":"Asia/Shanghai","keywords":""},{"iata":"BPN","name":"Sultan Aji Muhammad Sulaiman Sepinggan International Airport","city":"Balikpapan","country":"Indonesia","countryCode":"ID","lat":-1.268342,"lng":116.89452,"timezone":"Asia/Makassar","keywords":"WRLL, Balikpapan Airport, Sepinggan Airport, Sepinggang Airfield"},{"iata":"BPS","name":"Porto Seguro International Airport","city":"Porto Seguro","country":"Brazil","countryCode":"BR","lat":-16.438426,"lng":-39.080584,"timezone":"America/Fortaleza","keywords":""},{"iata":"BPT","name":"Jack Brooks Regional Airport","city":"Beaumont/Port Arthur","country":"United States","countryCode":"US","lat":29.9508,"lng":-94.020699,"timezone":"America/Chicago","keywords":"Southeast Texas Regional"},{"iata":"BPX","name":"Qamdo Bangda Airport","city":"Bangda","country":"China","countryCode":"CN","lat":30.553600311279297,"lng":97.1082992553711,"timezone":"Asia/Shanghai","keywords":""},{"iata":"BPY","name":"Besalampy Airport","city":"Besalampy","country":"Madagascar","countryCode":"MG","lat":-16.74453,"lng":44.482484,"timezone":"Indian/Antananarivo","keywords":""},{"iata":"BQB","name":"Busselton Margaret River Regional Airport","city":"Busselton","country":"Australia","countryCode":"AU","lat":-33.687222,"lng":115.400278,"timezone":"Australia/Perth","keywords":""},{"iata":"BQG","name":"Bogorodskoye Airport","city":"Bogorodskoye","country":"Russia","countryCode":"RU","lat":52.381041,"lng":140.449378,"timezone":"Europe/Moscow","keywords":"Bogorodskoe Airport, Аэропорт Богородское, УХНБ"},{"iata":"BQJ","name":"Batagay Airport","city":"Batagay","country":"Russia","countryCode":"RU","lat":67.648003,"lng":134.695007,"timezone":"Asia/Vladivostok","keywords":"УЕББ, Батагай"},{"iata":"BQK","name":"Brunswick Golden Isles Airport","city":"Brunswick","country":"United States","countryCode":"US","lat":31.258801,"lng":-81.466499,"timezone":"America/New_York","keywords":"Glynco Jetport"},{"iata":"BQL","name":"Boulia Airport","city":"Boulia Airport","country":"Australia","countryCode":"AU","lat":-22.913299560546875,"lng":139.89999389648438,"timezone":"Australia/Brisbane","keywords":""},{"iata":"BQN","name":"Rafael Hernández International Airport","city":"Aguadilla","country":"Puerto Rico","countryCode":"PR","lat":18.4949,"lng":-67.129402,"timezone":"America/Puerto_Rico","keywords":"Ramey, TJFF"},{"iata":"BQS","name":"Ignatyevo Airport","city":"Blagoveschensk","country":"Russia","countryCode":"RU","lat":50.42539978027344,"lng":127.41200256347656,"timezone":"Asia/Yakutsk","keywords":"Blagoveschensk Airport, Blagoveshchensk Airport, Аэропорт Игнатьево, Аэропорт Благовещенск"},{"iata":"BQT","name":"Brest International Airport","city":"Brest","country":"Belarus","countryCode":"BY","lat":52.108138,"lng":23.89676,"timezone":"Europe/Minsk","keywords":"Аэропорт Брест"},{"iata":"BQU","name":"J F Mitchell Airport","city":"Bequia","country":"St. Vincent & Grenadines","countryCode":"VC","lat":12.9884,"lng":-61.262001,"timezone":"America/St_Vincent","keywords":""},{"iata":"BRA","name":"Dom Ricardo Weberberger Airport","city":"Barreiras","country":"Brazil","countryCode":"BR","lat":-12.0789,"lng":-45.008999,"timezone":"America/Fortaleza","keywords":""},{"iata":"BRB","name":"Barreirinhas National Airport","city":"Barreirinhas","country":"Brazil","countryCode":"BR","lat":-2.756644,"lng":-42.803187,"timezone":"America/Sao_Paulo","keywords":"SBRR"},{"iata":"BRC","name":"Teniente Luis Candelaria International Airport","city":"San Carlos de Bariloche","country":"Argentina","countryCode":"AR","lat":-41.151199,"lng":-71.157501,"timezone":"America/Argentina/Salta","keywords":"Teniente Luis Candelaria"},{"iata":"BRD","name":"Brainerd Lakes Regional Airport","city":"Brainerd","country":"United States","countryCode":"US","lat":46.402861,"lng":-94.129727,"timezone":"America/Chicago","keywords":"Crow Wing County Airport"},{"iata":"BRE","name":"Bremen Airport","city":"Bremen","country":"Germany","countryCode":"DE","lat":53.046786,"lng":8.78932,"timezone":"Europe/Berlin","keywords":""},{"iata":"BRI","name":"Bari Karol Wojtyła International Airport","city":"Bari","country":"Italy","countryCode":"IT","lat":41.138901,"lng":16.760599,"timezone":"Europe/Rome","keywords":"Bari \"Karol Wojtyla\" International Airport, Palese Macchie Airport, Palese Airport"},{"iata":"BRK","name":"Bourke Airport","city":"Bourke Airport","country":"Australia","countryCode":"AU","lat":-30.039199829101562,"lng":145.95199584960938,"timezone":"Australia/Sydney","keywords":""},{"iata":"BRL","name":"Southeast Iowa Regional Airport","city":"Burlington","country":"United States","countryCode":"US","lat":40.783199310302734,"lng":-91.12550354003906,"timezone":"America/Chicago","keywords":""},{"iata":"BRM","name":"Jacinto Lara International Airport","city":"Barquisimeto","country":"Venezuela","countryCode":"VE","lat":10.042747,"lng":-69.35862,"timezone":"America/Caracas","keywords":""},{"iata":"BRN","name":"Bern Airport","city":"Bern","country":"Switzerland","countryCode":"CH","lat":46.912736,"lng":7.498819,"timezone":"Europe/Zurich","keywords":"LSZB, Belp, Bern-Belp, Bern-Belp Regional Airfield, Regionalflugplatz Bern-Belp"},{"iata":"BRO","name":"Brownsville South Padre Island International Airport","city":"Brownsville","country":"United States","countryCode":"US","lat":25.907238,"lng":-97.425235,"timezone":"America/Chicago","keywords":""},{"iata":"BRQ","name":"Brno-Tuřany Airport","city":"Brno","country":"Czechia","countryCode":"CZ","lat":49.151276,"lng":16.693972,"timezone":"Europe/Prague","keywords":""},{"iata":"BRR","name":"Barra Airport","city":"Eoligarry","country":"United Kingdom","countryCode":"GB","lat":57.0228,"lng":-7.44306,"timezone":"Europe/London","keywords":"Barra Eoligarry Airport, Barra Island"},{"iata":"BRS","name":"Bristol Airport","city":"Bristol","country":"United Kingdom","countryCode":"GB","lat":51.382326,"lng":-2.716453,"timezone":"Europe/London","keywords":"Lulsgate Bottom"},{"iata":"BRU","name":"Brussels Airport","city":"Zaventem","country":"Belgium","countryCode":"BE","lat":50.901402,"lng":4.48444,"timezone":"Europe/Brussels","keywords":"Brussels National, Zaventem, EBMB"},{"iata":"BRW","name":"Wiley Post Will Rogers Memorial Airport","city":"Utqiaġvik","country":"United States","countryCode":"US","lat":71.285402,"lng":-156.766008,"timezone":"America/Anchorage","keywords":"Barrow"},{"iata":"BRX","name":"Maria Montez International Airport","city":"Barahona","country":"Dominican Republic","countryCode":"DO","lat":18.25149917602539,"lng":-71.12039947509766,"timezone":"America/Santo_Domingo","keywords":""},{"iata":"BSA","name":"Bender Qassim International Airport","city":"Bosaso","country":"Somalia","countryCode":"SO","lat":11.275235,"lng":49.139231,"timezone":"Africa/Mogadishu","keywords":""},{"iata":"BSB","name":"Presidente Juscelino Kubitschek International Airport","city":"Brasília","country":"Brazil","countryCode":"BR","lat":-15.869167,"lng":-47.920834,"timezone":"America/Sao_Paulo","keywords":""},{"iata":"BSC","name":"José Celestino Mutis Airport","city":"Bahía Solano","country":"Colombia","countryCode":"CO","lat":6.20292,"lng":-77.3947,"timezone":"America/Bogota","keywords":""},{"iata":"BSD","name":"Baoshan Yunrui Airport","city":"Baoshan","country":"China","countryCode":"CN","lat":25.053301,"lng":99.168297,"timezone":"Asia/Shanghai","keywords":"Baoshan Yunduan Airport"},{"iata":"BSG","name":"Bata International Airport","city":"Bata","country":"Equatorial Guinea","countryCode":"GQ","lat":1.90547,"lng":9.80568,"timezone":"Africa/Malabo","keywords":""},{"iata":"BSK","name":"Biskra - Mohamed Khider Airport","city":"Biskra","country":"Algeria","countryCode":"DZ","lat":34.79318,"lng":5.738899,"timezone":"Africa/Algiers","keywords":""},{"iata":"BSL","name":"EuroAirport Basel–Mulhouse–Freiburg","city":"Bâle / Mulhouse","country":"France","countryCode":"FR","lat":47.60068,"lng":7.521117,"timezone":"Europe/Paris","keywords":"MLH, EAP, LSZM, Bâle, Basle"},{"iata":"BSO","name":"Basco Airport","city":"Basco","country":"Philippines","countryCode":"PH","lat":20.4513,"lng":121.980003,"timezone":"Asia/Manila","keywords":"Irport nu Basco, Paliparang Basco, Pagtayaban ti Basco"},{"iata":"BSR","name":"Basra International Airport","city":"Basra","country":"Iraq","countryCode":"IQ","lat":30.549101,"lng":47.662102,"timezone":"Asia/Baghdad","keywords":"Basrah"},{"iata":"BSX","name":"Pathein Airport","city":"Pathein","country":"Myanmar (Burma)","countryCode":"MM","lat":16.815201,"lng":94.7799,"timezone":"Asia/Rangoon","keywords":"Bassein"},{"iata":"BSZ","name":"Manas International Airport","city":"Bishkek","country":"Kyrgyzstan","countryCode":"KG","lat":43.061298,"lng":74.4776,"timezone":"UTC","keywords":"FRU, UAFM, Manas Air Force Base"},{"iata":"BTC","name":"Batticaloa International Airport","city":"Batticaloa","country":"Sri Lanka","countryCode":"LK","lat":7.705073,"lng":81.677163,"timezone":"Asia/Colombo","keywords":""},{"iata":"BTH","name":"Hang Nadim International Airport","city":"Batam","country":"Indonesia","countryCode":"ID","lat":1.12103,"lng":104.119003,"timezone":"Asia/Jakarta","keywords":"WIKB"},{"iata":"BTI","name":"Barter Island Long Range Radar Station Airport","city":"Barter Island","country":"United States","countryCode":"US","lat":70.134003,"lng":-143.582001,"timezone":"America/Anchorage","keywords":""},{"iata":"BTJ","name":"Sultan Iskandar Muda International Airport","city":"Banda Aceh","country":"Indonesia","countryCode":"ID","lat":5.525087,"lng":95.41997,"timezone":"Asia/Jakarta","keywords":"WIAB"},{"iata":"BTK","name":"Bratsk Airport","city":"Bratsk","country":"Russia","countryCode":"RU","lat":56.3696,"lng":101.701822,"timezone":"Asia/Irkutsk","keywords":"Аэропорт Братск"},{"iata":"BTM","name":"Bert Mooney Airport","city":"Butte","country":"United States","countryCode":"US","lat":45.95479965209961,"lng":-112.49700164794922,"timezone":"America/Denver","keywords":""},{"iata":"BTR","name":"Baton Rouge Metropolitan Airport","city":"Baton Rouge","country":"United States","countryCode":"US","lat":30.533199,"lng":-91.149597,"timezone":"America/Chicago","keywords":""},{"iata":"BTS","name":"M. R. Štefánik Airport","city":"Bratislava","country":"Slovakia","countryCode":"SK","lat":48.1702,"lng":17.2127,"timezone":"Europe/Bratislava","keywords":""},{"iata":"BTT","name":"Bettles Airport","city":"Bettles","country":"United States","countryCode":"US","lat":66.913902,"lng":-151.529007,"timezone":"America/Anchorage","keywords":""},{"iata":"BTU","name":"Bintulu Airport","city":"Bintulu","country":"Malaysia","countryCode":"MY","lat":3.12385010719,"lng":113.019996643,"timezone":"Asia/Kuala_Lumpur","keywords":""},{"iata":"BTV","name":"Patrick Leahy Burlington International Airport","city":"Burlington","country":"United States","countryCode":"US","lat":44.471901,"lng":-73.153297,"timezone":"America/New_York","keywords":""},{"iata":"BTW","name":"Bersujud Airport","city":"Batu Licin","country":"Indonesia","countryCode":"ID","lat":-3.41241,"lng":115.995003,"timezone":"Asia/Makassar","keywords":"WRBC, Batulicin"},{"iata":"BUA","name":"Buka Airport","city":"Buka Island","country":"Papua New Guinea","countryCode":"PG","lat":-5.422299,"lng":154.672698,"timezone":"Pacific/Port_Moresby","keywords":""},{"iata":"BUC","name":"Burketown Airport","city":"Burketown Airport","country":"Australia","countryCode":"AU","lat":-17.748600006103516,"lng":139.53399658203125,"timezone":"Australia/Brisbane","keywords":""},{"iata":"BUD","name":"Budapest Liszt Ferenc International Airport","city":"Budapest","country":"Hungary","countryCode":"HU","lat":47.43018,"lng":19.262393,"timezone":"Europe/Budapest","keywords":"Ferihegyi nemzetközi repülőtér, Budapest Liszt Ferenc international Airport"},{"iata":"BUF","name":"Buffalo Niagara International Airport","city":"Buffalo","country":"United States","countryCode":"US","lat":42.940498,"lng":-78.732201,"timezone":"America/New_York","keywords":""},{"iata":"BUI","name":"Bokondini Airport","city":"Bokondini","country":"Indonesia","countryCode":"ID","lat":-3.68455,"lng":138.677437,"timezone":"Asia/Jayapura","keywords":"WAJB"},{"iata":"BUN","name":"Gerardo Tobar López Airport","city":"Buenaventura","country":"Colombia","countryCode":"CO","lat":3.81963,"lng":-76.9898,"timezone":"America/Bogota","keywords":""},{"iata":"BUQ","name":"Joshua Mqabuko Nkomo International Airport","city":"Bulawayo","country":"Zimbabwe","countryCode":"ZW","lat":-20.016284,"lng":28.622897,"timezone":"Africa/Harare","keywords":"FVBU"},{"iata":"BUR","name":"Hollywood Burbank/Bob Hope Airport","city":"Burbank","country":"United States","countryCode":"US","lat":34.202834,"lng":-118.35805,"timezone":"America/Los_Angeles","keywords":"United Airport, Union Air Terminal, Lockheed Air Terminal, Burbank–Glendale–Pasadena"},{"iata":"BUS","name":"Alexander Kartveli Batumi International Airport","city":"Batumi","country":"Georgia","countryCode":"GE","lat":41.60939,"lng":41.600315,"timezone":"Asia/Tbilisi","keywords":"Batumi, batumi, Black Sea"},{"iata":"BUT","name":"Bathpalathang Airport","city":"Jakar","country":"Bhutan","countryCode":"BT","lat":27.5622,"lng":90.7471,"timezone":"UTC","keywords":"Bumthang Domestic"},{"iata":"BUU","name":"Muara Bungo Airport","city":"Muara Bungo","country":"Indonesia","countryCode":"ID","lat":-1.541635,"lng":102.181613,"timezone":"Asia/Jakarta","keywords":"Pasir Mayang"},{"iata":"BUX","name":"Bunia Airport","city":"Bunia","country":"Congo - Kinshasa","countryCode":"CD","lat":1.565743,"lng":30.220685,"timezone":"Africa/Lubumbashi","keywords":""},{"iata":"BUZ","name":"Bushehr Airport","city":"Bushehr","country":"Iran","countryCode":"IR","lat":28.9447994232,"lng":50.8345985413,"timezone":"Asia/Tehran","keywords":""},{"iata":"BVA","name":"Beauvais-Tillé airport","city":"Paris","country":"France","countryCode":"FR","lat":49.454399,"lng":2.11278,"timezone":"Europe/Paris","keywords":"Beauvais-Tillé"},{"iata":"BVB","name":"Atlas Brasil Cantanhede International Airport","city":"Boa Vista","country":"Brazil","countryCode":"BR","lat":2.84615,"lng":-60.690648,"timezone":"America/Boa_Vista","keywords":"Boa Vista International Airport"},{"iata":"BVC","name":"Aristides Pereira International Airport","city":"Rabil","country":"Cape Verde","countryCode":"CV","lat":16.136499,"lng":-22.888901,"timezone":"Atlantic/Cape_Verde","keywords":"Boa Vista Island"},{"iata":"BVE","name":"Brive Souillac airport","city":"Brive","country":"France","countryCode":"FR","lat":45.039722,"lng":1.485556,"timezone":"Europe/Paris","keywords":"Vallee de la Dordogne, Brive-la-Gaillarde"},{"iata":"BVG","name":"Berlevåg Airport","city":"Berlevåg","country":"Norway","countryCode":"NO","lat":70.871517,"lng":29.034097,"timezone":"Europe/Oslo","keywords":""},{"iata":"BVH","name":"Brigadeiro Camarão Airport","city":"Vilhena","country":"Brazil","countryCode":"BR","lat":-12.6944,"lng":-60.098301,"timezone":"America/Boa_Vista","keywords":"Vilhena Airport"},{"iata":"BVI","name":"Birdsville Airport","city":"Birdsville Airport","country":"Australia","countryCode":"AU","lat":-25.897499084472656,"lng":139.34800720214844,"timezone":"Australia/Brisbane","keywords":""},{"iata":"BVJ","name":"Bovanenkovo Airport","city":"Bovanenkovo","country":"Russia","countryCode":"RU","lat":70.315278,"lng":68.333611,"timezone":"Europe/Moscow","keywords":"HELIOPS, GAZPROM, LNG"},{"iata":"BVS","name":"Breves Airport","city":"Breves","country":"Brazil","countryCode":"BR","lat":-1.63653,"lng":-50.4436,"timezone":"America/Belem","keywords":""},{"iata":"BWA","name":"Gautam Buddha International Airport","city":"Siddharthanagar","country":"Nepal","countryCode":"NP","lat":27.504636,"lng":83.410381,"timezone":"Asia/Katmandu","keywords":"Bhairahawa Airport"},{"iata":"BWI","name":"Baltimore/Washington International Thurgood Marshall Airport","city":"Baltimore","country":"United States","countryCode":"US","lat":39.1754,"lng":-76.668297,"timezone":"America/New_York","keywords":"WAS, Friendship International"},{"iata":"BWK","name":"Brač Airport","city":"Gornji Humac","country":"Croatia","countryCode":"HR","lat":43.284454,"lng":16.678362,"timezone":"Europe/Zagreb","keywords":"Bol Airport"},{"iata":"BWN","name":"Brunei International Airport","city":"Bandar Seri Begawan","country":"Brunei","countryCode":"BN","lat":4.9442,"lng":114.928001,"timezone":"Asia/Brunei","keywords":""},{"iata":"BWO","name":"Balakovo Airport","city":"Balakovo","country":"Russia","countryCode":"RU","lat":51.858299,"lng":47.745602,"timezone":"Europe/Moscow","keywords":"Malaya Bykovka Airport, Аэропорт Балаково, Аэропорт Малая Быковка"},{"iata":"BWT","name":"Wynyard Airport","city":"Burnie","country":"Australia","countryCode":"AU","lat":-40.997039,"lng":145.726,"timezone":"Australia/Melbourne","keywords":""},{"iata":"BWX","name":"Banyuwangi Airport","city":"Rogojampi","country":"Indonesia","countryCode":"ID","lat":-8.31015,"lng":114.3401,"timezone":"Asia/Jakarta","keywords":"Banyuwangi International Airport, Blimbing Sari, Blimbingsari, Kabat, Rogojampi, Sukojati, WARB"},{"iata":"BXG","name":"Bendigo Airport","city":"Bendigo Airport","country":"Australia","countryCode":"AU","lat":-36.739399,"lng":144.330002,"timezone":"Australia/Hobart","keywords":""},{"iata":"BXH","name":"Balkhash Airport","city":"Balkhash","country":"Kazakhstan","countryCode":"KZ","lat":46.894246,"lng":75.004533,"timezone":"Asia/Qyzylorda","keywords":"Balqash"},{"iata":"BXR","name":"Bam Airport","city":"Bam","country":"Iran","countryCode":"IR","lat":29.0842,"lng":58.450001,"timezone":"Asia/Tehran","keywords":""},{"iata":"BXT","name":"LNG Badak Airport","city":"Bontang-Borneo Island","country":"Indonesia","countryCode":"ID","lat":0.121656,"lng":117.476558,"timezone":"Asia/Jakarta","keywords":"WRLC"},{"iata":"BXU","name":"Bancasi Airport","city":"Butuan","country":"Philippines","countryCode":"PH","lat":8.9515,"lng":125.4788,"timezone":"Asia/Manila","keywords":""},{"iata":"BXY","name":"Baikonur Krayniy International Airport","city":"Baikonur","country":"Kazakhstan","countryCode":"KZ","lat":45.621994,"lng":63.210773,"timezone":"Asia/Qyzylorda","keywords":"Krayniy Airport, Аэропорт Крайний"},{"iata":"BYK","name":"Bouaké Airport","city":"Bouaké","country":"Côte d’Ivoire","countryCode":"CI","lat":7.7388,"lng":-5.07367,"timezone":"Africa/Abidjan","keywords":""},{"iata":"BYM","name":"Carlos Manuel de Cespedes Airport","city":"Bayamo","country":"Cuba","countryCode":"CU","lat":20.3964,"lng":-76.621399,"timezone":"America/Havana","keywords":""},{"iata":"BYN","name":"Bayankhongor Airport","city":"Bayankhongor","country":"Mongolia","countryCode":"MN","lat":46.1633,"lng":100.704002,"timezone":"Asia/Ulaanbaatar","keywords":""},{"iata":"BYO","name":"Bonito Airport","city":"Bonito","country":"Brazil","countryCode":"BR","lat":-21.2473,"lng":-56.452399,"timezone":"America/Campo_Grande","keywords":"SJDB"},{"iata":"BYR","name":"Læsø Airport","city":"Læsø","country":"Denmark","countryCode":"DK","lat":57.277199,"lng":11.0001,"timezone":"Europe/Copenhagen","keywords":"Laeso, Laesoe"},{"iata":"BYW","name":"Blakely Island Airport","city":"Blakely Island","country":"United States","countryCode":"US","lat":48.579162,"lng":-122.823844,"timezone":"America/Los_Angeles","keywords":""},{"iata":"BZE","name":"Philip S. W. Goldson International Airport","city":"Belize City","country":"Belize","countryCode":"BZ","lat":17.539951,"lng":-88.303556,"timezone":"America/Belize","keywords":"Belize International, Ladyville"},{"iata":"BZG","name":"Ignacy Jan Paderewski Bydgoszcz Airport","city":"Bydgoszcz","country":"Poland","countryCode":"PL","lat":53.096802,"lng":17.977699,"timezone":"Europe/Warsaw","keywords":"Szwederowo, Bromberg"},{"iata":"BZI","name":"Balıkesir Airport","city":"Balıkesir","country":"Türkiye","countryCode":"TR","lat":39.619301,"lng":27.926001,"timezone":"Europe/Istanbul","keywords":"Balıkesir Air Base, Balıkesir Central, Balıkesir Merkez"},{"iata":"BZK","name":"Bryansk International Airport","city":"Bryansk","country":"Russia","countryCode":"RU","lat":53.214403,"lng":34.175965,"timezone":"Europe/Moscow","keywords":"Аэропорт Брянск, УУБП"},{"iata":"BZL","name":"Barisal Airport","city":"Barisal","country":"Bangladesh","countryCode":"BD","lat":22.801001,"lng":90.301201,"timezone":"Asia/Dhaka","keywords":""},{"iata":"BZN","name":"Bozeman Yellowstone International Airport","city":"Bozeman","country":"United States","countryCode":"US","lat":45.778853,"lng":-111.153711,"timezone":"America/Denver","keywords":"Gallatin Field"},{"iata":"BZO","name":"Bolzano Airport","city":"Bolzano","country":"Italy","countryCode":"IT","lat":46.459245,"lng":11.326125,"timezone":"Europe/Rome","keywords":"G Sabelli, Dolomiti"},{"iata":"BZR","name":"Béziers Vias airport","city":"Béziers","country":"France","countryCode":"FR","lat":43.323502,"lng":3.3539,"timezone":"Europe/Paris","keywords":""},{"iata":"BZV","name":"Maya-Maya International Airport","city":"Brazzaville","country":"Congo - Brazzaville","countryCode":"CG","lat":-4.2517,"lng":15.253,"timezone":"Africa/Brazzaville","keywords":""},{"iata":"BZX","name":"Bazhong Enyang Airport","city":"Bazhong","country":"China","countryCode":"CN","lat":31.73842,"lng":106.644872,"timezone":"Asia/Shanghai","keywords":""},{"iata":"CAB","name":"Cabinda Airport","city":"Cabinda","country":"Angola","countryCode":"AO","lat":-5.59839,"lng":12.188145,"timezone":"Africa/Luanda","keywords":"Maria Mambo Café"},{"iata":"CAC","name":"Coronel Adalberto Mendes da Silva Airport","city":"Cascavel","country":"Brazil","countryCode":"BR","lat":-25.000323,"lng":-53.501208,"timezone":"America/Sao_Paulo","keywords":""},{"iata":"CAE","name":"Columbia Metropolitan Airport","city":"Columbia","country":"United States","countryCode":"US","lat":33.938172,"lng":-81.123022,"timezone":"America/New_York","keywords":""},{"iata":"CAF","name":"Carauari Airport","city":"Carauari","country":"Brazil","countryCode":"BR","lat":-4.871473,"lng":-66.897552,"timezone":"America/Boa_Vista","keywords":""},{"iata":"CAG","name":"Cagliari Elmas Airport","city":"Cagliari","country":"Italy","countryCode":"IT","lat":39.251499,"lng":9.05428,"timezone":"Europe/Rome","keywords":"Cagliari Airport,Elmas"},